changeset,lon,visible,lat,timestamp,tags,id,version,addr:city,addr:country,addr:full,addr:housenumber,addr:housename,addr:postcode,addr:place,addr:street,email,name,opening_hours,operator,phone,ref,url,website,amenity,atm,bank,bicycle_parking,bicycle_rental,bar,building,building:levels,cafe,car_wash,dentist,drinking_water,fast_food,fountain,fuel,ice_cream,internet_access,landuse,library,office,parking,post_office,restaurant,school,social_facility,source,start_date,university,wikipedia,alcohol,bicycle,boat,books,butcher,clothes,coffee,collector,craft,dry_cleaning,fireplace,gas,hairdresser,hardware,lottery,model,motorcycle,music,musical_instrument,organic,pet,religion,second_hand,security,shoes,shop,ski,swimming_pool,trade,vacant,video,water,wholesale,wine,attraction,guest_house,information,museum,tourism,viewpoint,geometry,osm_type,biergarten,theatre,agrarian,cosmetics,golf,outdoor,trailer,zoo,subtype,index_right,zip
0.0,-73.229515,False,42.51265,1533692536,"{""cuisine"":""american""}",62866582,7,,,,162,,01237,,South Main Street,,Coyote Den,,,,,,,restaurant,,,,,,,,,,,,,,,,,,,,,,,,,,,,,,,,,,,,,,,,,,,,,,,,,,,,,,,,,,,,,,,,,,,,,POINT (-73.229515 42.51265),node,,,,,,,,,,11990.0,01237
0.0,-71.13683,False,41.698013,1716119876,"{""brand"":""Subway"",""brand:wikidata"":""Q244457"",""cuisine"":""sandwich"",""fixme:atp"":""no ATP match, check if still exists"",""takeaway"":""yes""}",67268435,6,,,,,,,,,,Subway,,,,,,,fast_food,,,,,,,,,,,,,,,,,,,,,,,,,,,,,,,,,,,,,,,,,,,,,,,,,,,,,,,,,,,,,,,,,,,,,POINT (-71.13683 41.698013),node,,,,,,,,,,12588.0,02723
0.0,-71.752075,False,42.27523,1718054185,"{""addr:state"":""MA"",""branch"":""Shrewsbury"",""brand"":""Moe's Southwest Grill"",""brand:wikidata"":""Q6889938"",""cuisine"":""mexican"",""drive_through"":""no"",""short_name"":""Moe's"",""takeaway"":""yes""}",255315418,9,Shrewsbury,,,61,,01545,,Boston Turnpike,,Moe's Southwest Grill,Mo-Su 11:00-21:00,,+1 508-797-6637,,,https://www.moes.com/find-a-moes/massachusetts/shrewsbury/214/,fast_food,,,,,,,,,,,,,,,,,,,,,,,,,,,,,,,,,,,,,caterer,,,,,,,,,,,,,,,,,,,,,,,,,,,,,,,,POINT (-71.752075 42.27523),node,,,,,,,,,,12219.0,01545
0.0,-71.75405,False,42.27401,1352076719,"{""cuisine"":""american""}",255315502,5,,,,,,,,,,Jimmy's Tavern & Grill,,,,,,,restaurant,,,,,,,,,,,,,,,,,,,,,,,,,,,,,,,,,,,,,,,,,,,,,,,,,,,,,,,,,,,,,,,,,,,,,POINT (-71.75405 42.27401),node,,,,,,,,,,12219.0,01545
0.0,-71.75268,False,42.274914,1715691841,"{""addr:state"":""MA"",""brand"":""Burger King"",""brand:wikidata"":""Q177054"",""cuisine"":""burger"",""delivery"":""yes"",""drive_through"":""yes"",""takeaway"":""yes""}",255315579,5,Shrewsbury,,,53,,01545-3521,,Boston Turnpike,,Burger King,06:00-22:00,,+1 508-756-3890,3638,,https://www.bk.com/store-locator/store/restaurant_2026,fast_food,,,,,,,,,,,,,,,,wlan,,,,,,,,,,,,,,,,,,,,,,,,,,,,,,,,,,,,,,,,,,,,,,,,,,,,,POINT (-71.75268 42.274914),node,,,,,,,,,,12219.0,01545
0.0,-71.807335,False,42.271217,1703216325,"{""cuisine"":""seafood""}",255316007,6,,,,118,,01609,,Highland Street,,The Sole Proprietor,Tu-Th 11:30-22:00; Su 16:00-21:00; Mo 11:30-21:00; Fr 11:30-23:00; Sa 16:00-23:00,,+1 508-798-3474,,,https://www.thesole.com/,restaurant,,,,,,,,,,,,,,,,,,,,,,,,,,,,,,,,,,,,,,,,,,,,,,,,,,,,,,,,,,,,,,,,,,,,,POINT (-71.807335 42.271217),node,,,,,,,,,,12399.0,01609
0.0,-71.80684,False,42.27099,1703216325,"{""check_date:opening_hours"":""2022-01-31"",""cuisine"":""thai""}",255316287,7,,,,107,,01609,,Highland Street,,Thai Time,Mo-Fr 11:00-21:00; Sa-Su 12:00-21:00,,+1 508-756-7267,,,https://www.thaitimeworcester.com/,restaurant,,,,,,,,,,,,,,,,,,,,,,,,,,,,,,,,,,,,,,,,,,,,,,,,,,,,,,,,,,,,,,,,,,,,,POINT (-71.80684 42.27099),node,,,,,,,,,,12399.0,01609
0.0,-71.68573,False,42.207,1530116055,"{""addr:state"":""MA"",""attribution"":""Office of Geographic and Environmental Information (MassGIS), Massachusetts Emergency Management Agency"",""note"":""office Headquarters"",""source_url"":""http://mass.gov/mgis/firestations.htm""}",257494825,6,Grafton,,,3,,01519,,Worcester Street,,,,,,,,,cafe,,,,,,,,,,,,,,,,,,,,,,,,,,,,,,,,,,,,,,,,,,,,,,,,,,,,,,,,,,,,,,,,,,,,,POINT (-71.68573 42.207),node,,,,,,,,,,2769.0,01519
0.0,-71.171844,False,42.33612,1550678644,"{""denomination"":""roman_catholic""}",257536654,4,Chestnut Hill,,,110,,02467,,College Road,,The Church in the 21st Century Center,,,+1 617 552 0470,,,https://www.bc.edu/church21.html,social_facility,,,,,,,,,,,,,,,,,,,,,,,,outreach,,,,,,,,,,,,,,,,,,,,,,,,,,christian,,,,,,,,,,,,,,,,,,,POINT (-71.171844 42.33612),node,,,,,,,,,outreach,12615.0,02467
0.0,-71.36004,False,42.166794,1616825951,"{""contact:facebook"":""https://www.facebook.com/Millis.House.of.Pizza"",""cuisine"":""pizza""}",257584601,6,,,,915,,,,Main Street,,Millis House of Pizza,"Mo-Su 11:00-22:00; Fr,Sa 11:00-23:00",,+1-508-376-8500,,,https://www.millishouseofpizza.com/,restaurant,,,,,,,,,,,,,,,,,,,,,,,,,,,,,,,,,,,,,,,,,,,,,,,,,,,,,,,,,,,,,,,,,,,,,POINT (-71.36004 42.166794),node,,,,,,,,,,2966.0,02054
0.0,-71.06482,False,42.326458,1727945667,"{""addr:state"":""MA"",""brand"":""Stop & Shop"",""brand:wikidata"":""Q3658429"",""check_date"":""2024-10-03"",""check_date:opening_hours"":""2024-10-03"",""note"":""store new since 2006 aerial imagery""}",314092543,7,Dorchester,,,1100,,02125,,Massachusetts Avenue,,Stop & Shop,Mo-Su 07:00-22:00,,+1 617-541-4700,0429,,https://stores.stopandshop.com/ma/dorchester/1100-massachusetts-avenue,,,,,,,,,,,,,,,,,,,,,,,,,,,,,,,,,,,,,,,,,,,,,,,,,,,,,,,supermarket,,,,,,,,,,,,,,,POINT (-71.06482 42.326458),node,,,,,,,,,,2586.0,02125
0.0,-71.02904,False,42.36572,1601909105,,326391966,3,,,,389,,,,,,Tawakal Halal,,,,,,,restaurant,,,,,,,,,,,,,,,,,,,,,,,,,,,,,,,,,,,,,,,,,,,,,,,,,,,,,,,,,,,,,,,,,,,,,POINT (-71.02904 42.36572),node,,,,,,,,,,2587.0,02128
0.0,-71.14082,False,42.362335,1723693303,"{""addr:state"":""MA"",""contact:facebook"":""118497341499142"",""cuisine"":""pizza"",""website:menu"":""https://bdpizza.com/menu/""}",329705548,6,Brighton,,,436,,02135,,Western Avenue,,Big Daddy's,Su-We 10:30-20:30; Th-Sa 10:30-21:30,,+1 617 787 1080,,,https://bdpizza.com/,fast_food,,,,,,,,,,,,,,,,,,,,,,,,,,,,,,,,,,,,,,,,,,,,,,,,,,,,,,,,,,,,,,,,,,,,,POINT (-71.14082 42.362335),node,,,,,,,,,,2401.0,02135
0.0,-71.13891,False,42.65381,1715212301,"{""addr:state"":""MA"",""alt_name"":""Dunkin' Donuts"",""brand"":""Dunkin'"",""brand:wikidata"":""Q847743"",""contact:website"":""https://locations.dunkindonuts.com/en/ma/andover/93-main-street/352694"",""cuisine"":""donut;coffee_shop"",""drive_through"":""no"",""takeaway"":""yes"",""wheelchair"":""yes""}",330145579,14,Andover,,,93,,01810,,Main Street,,Dunkin',Mo-Fr 05:00-19:00; Sa 05:00-18:00; Su 06:00-17:00,,+1 978 475-4193,352694,,https://locations.dunkindonuts.com/en/ma/andover/93-main-street/352694,fast_food,,,,,,,,,,,,,,,,,,,,,,,,,,,,,,,,,,,,,,,,,,,,,,,,,,,,,,,,,,,,,,,,,,,,,POINT (-71.13891 42.65381),node,,,,,,,,,,2396.0,01810
0.0,-71.13849,False,42.65622,1373670225,"{""created_by"":""Potlatch 0.10f"",""wheelchair"":""no""}",331119280,2,,,,,,,,,,King's Subs,,,,,,,restaurant,,,,,,,,,,,,,,,,,,,,,,,,,,,,,,,,,,,,,,,,,,,,,,,,,,,,,,,,,,,,,,,,,,,,,POINT (-71.13849 42.65622),node,,,,,,,,,,2396.0,01810
0.0,-71.14028,False,42.6564,1718847764,"{""addr:state"":""MA"",""branch"":""Main St. Andover"",""brand"":""Starbucks"",""brand:wikidata"":""Q37158"",""cuisine"":""coffee_shop"",""official_name"":""Starbucks Coffee"",""takeaway"":""yes"",""wheelchair"":""yes""}",331119283,9,Andover,,,14,,01810,,Main Street,,Starbucks,,,+1 978-475-7752,13579,,https://www.starbucks.com/store-locator/store/13579/main-st-andover-14-main-street-andover-ma-018103702-us,cafe,,,,,,,,,,,,,,,,,,,,,,,,,,,,,,,,,,,,,,,,,,,,,,,,,,,,,,,,,,,,,,,,,,,,,POINT (-71.14028 42.6564),node,,,,,,,,,,2396.0,01810
0.0,-71.13885,False,42.65449,1373670546,"{""created_by"":""Potlatch 0.10f"",""wheelchair"":""yes""}",331638317,2,,,,,,,,,,Bertucci's Brick Oven Restaurant,,,,,,,restaurant,,,,,,,,,,,,,,,,,,,,,,,,,,,,,,,,,,,,,,,,,,,,,,,,,,,,,,,,,,,,,,,,,,,,,POINT (-71.13885 42.65449),node,,,,,,,,,,2396.0,01810
0.0,-71.14196,False,42.657707,1373670298,"{""created_by"":""Potlatch 0.10f"",""wheelchair"":""yes""}",332575684,2,,,,,,,,,,Boston King Cafe,,,,,,,cafe,,,,,,,,,,,,,,,,,,,,,,,,,,,,,,,,,,,,,,,,,,,,,,,,,,,,,,,,,,,,,,,,,,,,,POINT (-71.14196 42.657707),node,,,,,,,,,,2396.0,01810
0.0,-71.131096,False,42.64682,1324421147,"{""access"":""private"",""old_name"":""Ryley Room""}",333504507,3,,,,,,,,,,The Den,,Phillips Academy,,,,,fast_food,,,,,,,,,,,,,,,,,,,,,,,,,,,,,,,,,,,,,,,,,,,,,,,,,,,,,,,,,,,,,,,,,,,,,POINT (-71.131096 42.64682),node,,,,,,,,,,2396.0,01810
0.0,-71.13321,False,42.649433,1232843252,"{""created_by"":""Potlatch 0.10f""}",336140146,2,,,,,,,,,,Andover Inn,,,,,,,restaurant,,,,,,,,,,,,,,,,,,,,,,,,,,,,,,,,,,,,,,,,,,,,,,,,,,,,,,,,,,,,,,,,,,,,,POINT (-71.13321 42.649433),node,,,,,,,,,,2396.0,01810
0.0,-71.13861,False,42.654095,1233196412,"{""created_by"":""Potlatch 0.10f""}",338838511,1,,,,,,,,,,,,,,,,,cafe,,,,,,,,,,,,,,,,,,,,,,,,,,,,,,,,,,,,,,,,,,,,,,,,,,,,,,,,,,,,,,,,,,,,,POINT (-71.13861 42.654095),node,,,,,,,,,,2396.0,01810
0.0,-71.48868,False,42.433834,1647788362,"{""check_date:opening_hours"":""2021-07-01"",""cuisine"":""pizza"",""wheelchair"":""yes""}",339057878,7,Stow,US,,156,,01775,,Great Road,,Stow House of Pizza,"Su-Th 11:00-21:00; Fr,Sa 11:00-22:00",,,,,,cafe,,,,,,,,,,,,,,,,,,,,,,,,,,,,,,,,,,,,,,,,,,,,,,,,,,,,,,,,,,,,,,,,,,,,,POINT (-71.48868 42.433834),node,,,,,,,,,,12129.0,01775
0.0,-71.486206,False,42.432926,1681431478,"{""addr:state"":""MA"",""wheelchair"":""yes""}",339057885,9,Stow,US,,118,,01775,,Great Road,,Stow Cafe,Tu-Su 07:00-14:00,,,,,,restaurant,,,,,,,,,,,,,,,,,,,,,,,,,,,,,,,,,,,,,,,,,,,,,,,,,,,,,,,,,,,,,,,,,,,,,POINT (-71.486206 42.432926),node,,,,,,,,,,12129.0,01775
0.0,-71.08716,False,42.393982,1696438927,"{""cuisine"":""pizza""}",345423108,4,,,,,,,,,,Romanza Pizzaria,,,,,,,restaurant,,,,,,,,,,,,,,,,,,,,,,,,,,,,,,,,,,,,,,,,,,,,,,,,,,,,,,,,,,,,,,,,,,,,,POINT (-71.08716 42.393982),node,,,,,,,,,,12765.0,02145
0.0,-71.106606,False,42.383514,1715212301,"{""addr:state"":""MA"",""alt_name"":""Dunkin' Donuts"",""brand"":""Dunkin'"",""brand:wikidata"":""Q847743"",""contact:website"":""https://locations.dunkindonuts.com/en/ma/somerville/519-somerville-ave/302673"",""cuisine"":""donut;coffee_shop"",""drive_through"":""no"",""takeaway"":""yes""}",345423146,9,Somerville,,,519,,02143,,Somerville Avenue,,Dunkin',Mo-Su 05:00-18:00,,+16176283355,302673,,https://locations.dunkindonuts.com/en/ma/somerville/519-somerville-ave/302673,fast_food,,,,,,,,,,,,,,,,,,,,,,,,,,,,,,,,,,,,,,,,,,,,,,,,,,,,,,,,,,,,,,,,,,,,,POINT (-71.106606 42.383514),node,,,,,,,,,,2301.0,02143
0.0,-71.152695,False,42.4147,1722182427,"{""addr:state"":""MA"",""cuisine"":""coffee_shop"",""old_name"":""Jam'n Java""}",354263117,9,Arlington,,,594,,02476,,Massachusetts Avenue,,Kickstand Cafe,Tu-Su 08:00-15:00,,,,,,cafe,,,,,,,,,,,,,,,,wlan,,,,,,,,,,,,,,,,,,,,,,,,,,,,,,,,,,,,,,,,,,,,,,,,,,,,,POINT (-71.152695 42.4147),node,,,,,,,,,,2305.0,02476
0.0,-71.151,False,42.414757,1718847764,"{""addr:state"":""MA"",""branch"":""Arlington"",""brand"":""Starbucks"",""brand:wikidata"":""Q37158"",""cuisine"":""coffee_shop"",""official_name"":""Starbucks Coffee"",""takeaway"":""yes""}",356114066,12,Arlington,,,327,,02474,,Broadway,,Starbucks,Mo-Sa 05:00-20:30; Su 05:00-19:00,,+1 781-641-2893,16694,,https://www.starbucks.com/store-locator/store/16694/arlington-327-broadway-arlington-ma-024745303-us,cafe,,,,,,,,,,,,,,,,wlan,,,,,,,,,,,,,,,,,,,,,,,,,,,,,,,,,,,,,,,,,,,,,,,,,,,,,POINT (-71.151 42.414757),node,,,,,,,,,,2972.0,02474
0.0,-71.046234,False,42.764126,1495631850,"{""gnis:feature_id"":""598996"",""old_name"":""Glynn Memorial Hospital""}",358258700,2,Haverhill,,,61,,01830,,Brown Street,,Serenity at Summit New England,,Summit Behavioral Health,+1 844 643 3869,,,https://www.summitbehavioralhealth.com/locations/inpatient-haverhill-ma/,social_facility,,,,,,,,,,,,,,,,,,,,,,,,group_home,,,,,,,,,,,,,,,,,,,,,,,,,,,,,,,,,,,,,,,,,,,,,POINT (-71.046234 42.764126),node,,,,,,,,,group_home,12177.0,01830
0.0,-71.22061,False,42.31343,1694709192,"{""gnis:feature_id"":""600855""}",358261305,3,Newton,,,277,,02464,,Elliot Street,,The Stone Institute,,,+1 617 527 0023,,,http://www.stoneinstitute.com/,social_facility,,,,,,,,,,,,,,,,,,,,,,,,,,,,,,,,,,,,,,,,,,,,,,,,,,,,,,,,,,,,,,,,,,,,,POINT (-71.22061 42.31343),node,,,,,,,,,,12614.0,02464
0.0,-71.09228,False,42.418983,1714492031,"{""denomination"":""baptist"",""ele"":""6"",""gnis:feature_id"":""1973309""}",358278304,5,,,,,,,,,,New England Baptist Church,,,,,,,cafe,,,,,,,,,,,,,,,,,,,,,,,,,,,,,,,,,,,,,,,,,,,,,,,,,,,,,,,,,,,,,,,,,,,,,POINT (-71.09228 42.418983),node,,,,,,,,,,2493.0,02155
0.0,-71.0891,False,42.34857,1714492523,"{""access"":""private"",""addr:state"":""MA"",""check_date"":""2023-06-17"",""club"":""alumni"",""gnis:feature_id"":""1971323"",""wheelchair"":""limited"",""wikidata"":""Q5676312""}",367777207,6,Boston,,,374,,02115,,Commonwealth Avenue,contact@harvardclub.com,Harvard Club of Boston,,Harvard Club of Boston,+1-617-536-1260,,,https://www.harvardclub.com/,restaurant,,,,,,,,,,,,,,,,,,,,,,,,,USGS Geonames,1908-01-01,,en:Harvard Club of Boston,,,,,,,,,,,,,,,,,,,,,,,,,,,,,,,,,,,,,,,,,POINT (-71.0891 42.34857),node,,,,,,,,,,2778.0,02215
0.0,-71.16033,False,42.309544,1703707606,"{""cuisine"":""american"",""gnis:feature_id"":""607101""}",367779570,5,Brookline,,,1281,,02467,,West Roxbury Parkway,,Vineripe grill,,,+1 617-278-4000,,,https://www.vineripegrill.com/,restaurant,,,,,,,,,,,,,,,,,,,,,,,,,,,,,,,,,,,,,,,,,,,,,,,,,,,,,,,,,,,,,,,,,,,,,POINT (-71.16033 42.309544),node,,,,,,,,,,12615.0,02467
0.0,-71.237015,False,42.369537,1658030104,"{""addr:state"":""MA"",""cuisine"":""tapas;spanish""}",373016823,6,Waltham,,,388,,02453,,Moody Street,,Solea,"Tu-Th 17:00-22:00, Fr 17:00-23:00, Sa 12:00-23:00, Su 12:00-22:00, Mo off",,+1 781 894 1805,,,https://www.soleatapas.com,restaurant,,,,,,,,,,,,,,,,,,,,,,,,,,,,,,,,,,,,,,,,,,,,,,,,,,,,,,,,,,,,,,,,,,,,,POINT (-71.237015 42.369537),node,,,,,,,,,,2589.0,02453
0.0,-71.45642,False,42.468945,1715212301,"{""addr:state"":""MA"",""alt_name"":""Dunkin' Donuts"",""brand"":""Dunkin'"",""brand:wikidata"":""Q847743"",""contact:website"":""https://locations.dunkindonuts.com/en/ma/acton/212-main-st/342899"",""cuisine"":""donut;coffee_shop"",""drive_through"":""no"",""takeaway"":""yes""}",387544816,6,Acton,,,212,,01720,,Main Street,,Dunkin',Mo-Fr 04:30-18:00; Sa 05:00-18:00; Su 05:00-17:00,,+1 978-266-8942,342899,,https://locations.dunkindonuts.com/en/ma/acton/212-main-st/342899,fast_food,,,,,,,,,,,,,,,,,,,,,,,,,,,,,,,,,,,,,,,,,,,,,,,,,,,,,,,,,,,,,,,,,,,,,POINT (-71.45642 42.468945),node,,,,,,,,,,12546.0,01720
0.0,-71.4565,False,42.469025,1389464614,"{""cuisine"":""thai""}",387544817,5,Acton,,,214,,01720,,Main Street,,Benjarong,,,+1 978 635 9580,,,,restaurant,,,,,,,,,,,,,,,,,,,,,,,,,,,,,,,,,,,,,,,,,,,,,,,,,,,,,,,,,,,,,,,,,,,,,POINT (-71.4565 42.469025),node,,,,,,,,,,12546.0,01720
0.0,-71.51156,False,42.436554,1743272771,,389150663,10,,,,,,,,,,Derby Ridge Farm,"Aug-Dec Mo,We-Su 10:00-18:00",,,,,,,,,,,,,,,,,,,,,,,,,,,,,,,,,,,,,,,,,,,,,,,,,,,,,,,,,,,,farm,,,,,,,,,,,,,,,POINT (-71.51156 42.436554),node,,,,,,,,,,12129.0,01775
0.0,-71.78857,False,42.33575,1458098053,"{""cuisine"":""irish""}",389155986,2,,,,,,,,,,O'Connors,,,,,,,restaurant,,,,,,,,,,,,,,,,,,,,,,,,,,,,,,,,,,,,,,,,,,,,,,,,,,,,,,,,,,,,,,,,,,,,,POINT (-71.78857 42.33575),node,,,,,,,,,,2487.0,01606
0.0,-71.75119,False,42.2756,1707444727,"{""addr:state"":""MA"",""branch"":""Shrewsbury"",""brand"":""Trader Joe's"",""brand:wikidata"":""Q688825"",""wheelchair"":""yes""}",389156199,9,Shrewsbury,,,77,,01545,,Boston Turnpike,,Trader Joe's,Mo-Su 08:00-21:00,,+1 508-755-9560,508,,https://locations.traderjoes.com/ma/shrewsbury/508/,,,,,,,,,,,,,,,,,,,,,,,,,,,,,,,,,,,,,,,,,,,,,,,,,,,,,,,supermarket,,,,,,,,,,,,,,,POINT (-71.75119 42.2756),node,,,,,,,,,,12219.0,01545
0.0,-71.75309,False,42.273148,1715164482,"{""addr:state"":""MA"",""brand"":""Panera Bread"",""brand:wikidata"":""Q7130852"",""cuisine"":""sandwich;bakery"",""short_name"":""Panera"",""takeaway"":""yes""}",389156203,9,Shrewsbury,,,50,,01545,,Boston Turnpike,,Panera Bread,"Mo-Th 06:00-21:30; Fr,Sa 06:00-22:00; Su 06:30-21:00",,+1 508-798-9949,,,https://locations.panerabread.com/ma/shrewsbury/50-boston-turnpike.html,fast_food,,,,,,,,,,,,,,,,,,,,,,,,,,,,,,,,,,,,,,,,,,,,,,,,,,,,,,,,,,,,,,,,,,,,,POINT (-71.75309 42.273148),node,,,,,,,,,,12219.0,01545
0.0,-71.45394,False,42.47362,1329788652,"{""cuisine"":""pizza""}",392156341,2,,,,,,,,,,Sorrento's,,,,,,,restaurant,,,,,,,,,,,,,,,,,,,,,,,,,,,,,,,,,,,,,,,,,,,,,,,,,,,,,,,,,,,,,,,,,,,,,POINT (-71.45394 42.47362),node,,,,,,,,,,12546.0,01720
0.0,-71.451706,False,42.474926,1718847764,"{""addr:state"":""MA"",""branch"":""Acton, Kelly's Corner"",""brand"":""Starbucks"",""brand:wikidata"":""Q37158"",""cuisine"":""coffee_shop"",""indoor_seating"":""yes"",""official_name"":""Starbucks Coffee"",""outdoor_seating"":""yes"",""takeaway"":""yes"",""wheelchair"":""limited""}",392156345,11,Acton,,,411,,01720,,Massachusettes Avenue,,Starbucks,,,+1 978-264-1992,15302,,https://www.starbucks.com/store-locator/store/15302/acton-kellys-corner-411-massachusettes-ave-acton-ma-017203739-us,cafe,,,,,,,,,,,,,,,,,,,,,,,,,,,,,,,,,,,,,,,,,,,,,,,,,,,,,,,,,,,,,,,,,,,,,POINT (-71.451706 42.474926),node,,,,,,,,,,12546.0,01720
0.0,-71.448784,False,42.475235,1705375052,"{""addr:state"":""MA"",""brand"":""Roche Bros."",""brand:wikidata"":""Q7353834"",""wheelchair"":""yes""}",392156348,7,Acton,,,387,,01720,,Massachusetts Avenue,,Roche Bros.,Mo-Sa 07:00-21:00; Su 08:00-20:00,,+1 978 263 0404,112,,,,,,,,,,,,,,,,,,,,,,,,,,,,,,,,,,,,,,,,,,,,,,,,,,,,,,,,,supermarket,,,,,,,,,,,,,,,POINT (-71.448784 42.475235),node,,,,,,,,,,12546.0,01720
0.0,-71.105774,False,42.364773,1691164436,"{""addr:state"":""MA"",""outdoor_seating"":""yes""}",417080191,7,Cambridge,,,286,,02139,,Franklin Street,,Andala Coffee House,"Mo-Fr 09:00-23:00, Sa-Su 08:00-23:00",,+1 617 945 2212,,,https://www.andalacoffee.com/,cafe,,,,,,,,,,,,,,,,wlan,,,,,,,,,,,,,,,,,,,,,,,,,,,,,,,,,,,,,,,,,,,,,,,,,,,,,POINT (-71.105774 42.364773),node,,,,,,,,,,12754.0,02139
0.0,-72.0666,False,42.116222,1705375052,"{""brand"":""Cracker Barrel"",""brand:wikidata"":""Q4492609"",""cuisine"":""american"",""official_name"":""Cracker Barrel Old Country Store""}",431076621,4,,,,,,,,,,Cracker Barrel,"06:00-22:00; Fr, Sa 06:00-23:00",,,,,,restaurant,,,,,,,,,,,,,,,,,,,,,,,,,,,,,,,,,,,,,,,,,,,,,,,,,,,,,,,,,,,,,,,,,,,,,POINT (-72.0666 42.116222),node,,,,,,,,,,12053.0,01566
0.0,-72.06582,False,42.11647,1716373511,"{""addr:state"":""MA"",""brand"":""Wendy's"",""brand:wikidata"":""Q550258"",""cuisine"":""burger"",""drive_through"":""yes"",""internet_access:fee"":""no"",""opening_hours:drive_through"":""Mo-Su 06:30-01:00"",""takeaway"":""yes"",""toilets"":""yes"",""toilets:access"":""yes"",""toilets:wheelchair"":""yes""}",431076702,7,Sturbridge,,,211,,01566,,Charlton Road,,Wendy's,06:30-22:00,,+1 508-347-8702,,,https://locations.wendys.com/united-states/ma/sturbridge/211-charlton-road,fast_food,,,,,,,,,,,,,,,,wlan,,,,,,,,,,,,,,,,,,,,,,,,,,,,,,,,,,,,,,,,,,,,,,,,,,,,,POINT (-72.06582 42.11647),node,,,,,,,,,,12053.0,01566
0.0,-71.15191,False,42.414764,1706111800,"{""addr:state"":""MA"",""cuisine"":""thai;vietnamese"",""old_name"":""Sweet Chilli"",""self_service"":""yes"",""takeaway"":""yes""}",433558247,4,Arlington,,,470-472,,02474,,Massachusetts Avenue,,Noodle Market,We-Mo 11:30-21:30,,,,,,restaurant,,,,,,,,,,,,,,,,,,,,,,,,,,,,,,,,,,,,,,,,,,,,,,,,,,,,,,,,,,,,,,,,,,,,,POINT (-71.15191 42.414764),node,,,,,,,,,,2972.0,02474
0.0,-71.14852,False,42.41132,1680214344,"{""addr:state"":""MA"",""cuisine"":""indian;nepalese"",""old_name"":""Prose;Sabzi"",""takeaway"":""yes""}",433561048,4,Arlington,,,352,,,,Massachusetts Avenue,,Makalu Nepali & Indian Cuisine,We-Mo 11:30-21:00,,+1-781-316-0051,,,https://www.makalucusine.com/,restaurant,,,,,,,,,,,,,,,,,,,,,,,,,,,,,,,,,,,,,,,,,,,,,,,,,,,,,,,,,,,,,,,,,,,,,POINT (-71.14852 42.41132),node,,,,,,,,,,2972.0,02474
0.0,-71.15105,False,42.415096,1706557701,"{""check_date"":""2024-01-29""}",439211089,4,,,,,,,,,,Gail Ann Coffee Shop,Mo-Fr 05:00-17:00; Sa 05:00-15:00; Su 05:00-14:00,,,,,,cafe,,,,,,,,,,,,,,,,,,,,,,,,,,,,,,,,,,,,,,,,,,,,,,,,,,,,,,,,,,,,,,,,,,,,,POINT (-71.15105 42.415096),node,,,,,,,,,,2972.0,02474
0.0,-71.15211,False,42.415237,1734102497,"{""addr:state"":""MA"",""check_date"":""2024-12-12"",""cuisine"":""indian""}",439211373,8,Arlington,,,485,,02474,,Massachusetts Avenue,,Punjab,Mo off; Tu-Su 11:00-22:00,,+1 781-643-0943,,,https://punjabarlington.com/,restaurant,,,,,,,,,,,,,,,,,,,,,,,,,,,,,,,,,,,,,,,,,,,,,,,,,,,,,,,,,,,,,,,,,,,,,POINT (-71.15211 42.415237),node,,,,,,,,,,2972.0,02474
0.0,-71.10246,False,42.360218,1725205011,"{""check_date"":""2024-09-01""}",441291604,4,,,,,,,,,,Pacific Street Cafe,Mo-Fr 07:00-18:00,,,,,,cafe,,,,,,,,,,,,,,,,,,,,,,,,,,,,,,,,,,,,,,,,,,,,,,,,,,,,,,,,,,,,,,,,,,,,,POINT (-71.10246 42.360218),node,,,,,,,,,,12754.0,02139
0.0,-71.37124,False,42.421574,1715212301,"{""addr:state"":""MA"",""alt_name"":""Dunkin' Donuts"",""brand"":""Dunkin'"",""brand:wikidata"":""Q847743"",""contact:website"":""https://locations.dunkindonuts.com/en/ma/concord/1641-sudbury-rd/340315"",""cuisine"":""donut;coffee_shop"",""drive_through"":""no"",""takeaway"":""yes""}",443532247,9,Concord,,,1641,,01742,,Sudbury Road,,Dunkin',Mo-Sa 05:00-19:00; Su 05:30-19:00,,+1-978-369-0805,340315,,https://locations.dunkindonuts.com/en/ma/concord/1641-sudbury-rd/340315,fast_food,,,,,,,,,,,,,,,,,,,,,,,,,,,,,,,,,,,,,,,,,,,,,,,,,,,,,,,,,,,,,,,,,,,,,POINT (-71.37124 42.421574),node,,,,,,,,,,12550.0,01742
0.0,-71.1545,False,42.416073,1682028516,"{""addr:state"":""MA"",""cuisine"":""turkish""}",454850422,4,Arlington,,,669,,02476,,Massachusetts Avenue,,Pasha,,,,,,,restaurant,,,,,,,,,,,,,,,,,,,,,,,,,,,,,,,,,,,,,,,,,,,,,,,,,,,,,,,,,,,,,,,,,,,,,POINT (-71.1545 42.416073),node,,,,,,,,,,2972.0,02474
0.0,-71.14402,False,42.406883,1677960442,"{""addr:state"":""MA"",""cuisine"":""italian"",""delivery"":""yes"",""fax"":""+1-781-777-1657""}",454877046,6,Arlington,,,242,,02474,,Massachusetts Avenue,,Venice Italian Kitchen,Mo-Fr 10:30-21:30; Sa-Su 11:00-21:30,,+1-781-777-1719,,,http://luigisitaliankitchen.com/,restaurant,,,,,,,,,,,,,,,,,,,,,,,,,,,,,,,,,,,,,,,,,,,,,,,,,,,,,,,,,,,,,,,,,,,,,POINT (-71.14402 42.406883),node,,,,,,,,,,2972.0,02474
0.0,-71.15099,False,42.415127,1696727214,"{""addr:state"":""MA"",""cuisine"":""chinese""}",456718606,4,Arlington,,,14,,02474,,Medford Street,,Lucky Dragon,"Mo,We,Th 11:30-23:30; Fr-Sa 11:30-24:00",,+1 (781) 648-8828,,,https://www.luckydragonarlingtonma.com,restaurant,,,,,,,,,,,,,,,,,,,,,,,,,,,,,,,,,,,,,,,,,,,,,,,,,,,,,,,,,,,,,,,,,,,,,POINT (-71.15099 42.415127),node,,,,,,,,,,2972.0,02474
0.0,-69.98448,False,41.89949,1698493599,"{""addr:state"":""MA"",""cuisine"":""pizza;ice_cream;seafood"",""delivery"":""yes"",""drive_through"":""no"",""takeaway"":""yes""}",459390886,4,South Wellfleet,,,814,,02663,,Grand Army of the Republic Highway,,Bob's Sub & Cone,Mo-Su 11:00-22:00,,+1-508-349-6181,,,https://www.bobssubandcone.com/,fast_food,,,,,,,,,,,,,,,,,,,,,,,,,,,,,,,,,,,,,,,,,,,,,,,,,,,,,,,,,,,,,,,,,,,,,POINT (-69.98448 41.89949),node,,,,,,,,,,12752.0,02667
0.0,-71.118286,False,42.38975,1730022083,"{""addr:state"":""MA"",""brand"":""Star Market"",""brand:wikidata"":""Q7600795"",""check_date"":""2024-10-27"",""check_date:opening_hours"":""2024-10-27"",""level"":""0"",""payment:cash"":""yes"",""payment:credit_cards"":""yes"",""wheelchair"":""yes""}",460001186,12,Cambridge,US,,49,,02140,,White Street,,Star Market,Mo-Su 06:00-24:00,,+1 617-492-5566,,,https://local.starmarket.com/ma/cambridge/49-white-st.html,,,,,,,,,,,,,,,,,,,,,,,,,,,,,,,,,,,,,,,,,,,,,,,,,,,,,,,supermarket,,,,,,,,,,,,,,,POINT (-71.118286 42.38975),node,,,,,,,,,,2869.0,02140
0.0,-71.1503,False,42.374855,1727700085,"{""air_conditioning"":""yes"",""cuisine"":""tea;turkish;breakfast;bagel;coffee_shop;local"",""diet:vegan"":""yes"",""diet:vegetarian"":""yes"",""payment:credit_cards"":""yes"",""payment:debit_cards"":""yes"",""smoking"":""no"",""toilets"":""yes"",""toilets:female"":""yes"",""toilets:male"":""yes"",""toilets:unisex"":""yes"",""toilets:wheelchair"":""yes""}",460211002,15,Belmont,,,1,,,,Belmont Street,,Sofra Bakery & Cafe,Sa-Su 08:00-18:00; Tu-Fr 08:00-19:00; Mo 08:00-17:30,,+1 617 661 3161,,,https://www.sofrabakery.com/,cafe,,,,,,,,,,,,,,,,,,,,,,,,,,,,,,,,,,,,,,,,,,,,,,,,,,,,,,,,,,,,,,,,,,,,,POINT (-71.1503 42.374855),node,,,,,,,,,,12738.0,02138
0.0,-71.14908,False,42.37538,1730021653,"{""addr:state"":""MA"",""brand"":""Star Market"",""brand:wikidata"":""Q7600795""}",460211013,4,Cambridge,US,,699,,02138,,Mount Auburn Street,,Star Market,,,+1 617-876-1450,,,https://local.starmarket.com/ma/cambridge/699-mt-auburn-st.html,,,,,,,,,,,,,,,,,,,,,,,,,,,,,,,,,,,,,,,,,,,,,,,,,,,,,,,supermarket,,,,,,,,,,,,,,,POINT (-71.14908 42.37538),node,,,,,,,,,,12738.0,02138
0.0,-71.15058,False,42.414566,1688502658,"{""addr:state"":""MA"",""alt_name"":""Donut Villa Diner"",""cuisine"":""brunch;donut""}",463156774,10,Arlington,,,319,,02474,,Broadway,,Donut Villa Brunch & Bar,"Mo-Th 08:00-23:00; Fr,Sa 08:00-24:00; Su 08:00-22:00",,,,,https://www.donutvilladiner.com/,restaurant,,,,,,,,,,,,,,,,,,,,,,,,,,,,,,,,,,,,,,,,,,,,,,,,,,,,,,,,,,,,,,,,,,,,,POINT (-71.15058 42.414566),node,,,,,,,,,,2972.0,02474
0.0,-71.15029,False,42.414436,1734102497,"{""addr:state"":""MA"",""check_date"":""2024-12-12"",""check_date:opening_hours"":""2024-01-29"",""cuisine"":""chinese"",""old_name"":""Mifune""}",463157240,5,Arlington,,,303,,02474,,Broadway Terrace,,Fusion Taste,Mo-Th 11:00-22:00; Fr-Sa 11:00-23:00; Su 11:30-22:00,,+1 781-641-2388; +1 781-641-2399,,,https://www.fusiontasterestaurant.com/,restaurant,,,,,,,,,,,,,,,,,,,,,,,,,,,,,,,,,,,,,,,,,,,,,,,,,,,,,,,,,,,,,,,,,,,,,POINT (-71.15029 42.414436),node,,,,,,,,,,2972.0,02474
0.0,-71.15113,False,42.414295,1706650052,"{""addr:state"":""MA"",""cuisine"":""nepali""}",463157807,5,Arlington,,,434,,02474,,Massachusetts Avenue,,Zomsa,,,,,,,restaurant,,,,,,,,,,,,,,,,,,,,,,,,,,,,,,,,,,,,,,,,,,,,,,,,,,,,,,,,,,,,,,,,,,,,,POINT (-71.15113 42.414295),node,,,,,,,,,,2972.0,02474
0.0,-71.14146,False,42.405357,1735679839,"{""addr:state"":""MA"",""check_date"":""2024-12-31"",""diet:vegetarian"":""yes"",""outdoor_seating"":""yes""}",463165639,7,,,,171,,02474,,Massachusetts Avenue,,Barismo,,,,,,,cafe,,,,,,,,,,,,,,,,,,,,,,,,,,,,,,,,,,,,,,,,,,,,,,,,,,,,,,,,,,,,,,,,,,,,,POINT (-71.14146 42.405357),node,,,,,,,,,,2972.0,02474
0.0,-71.141106,False,42.405075,1735679749,"{""addr:state"":""MA"",""check_date"":""2024-12-31"",""cuisine"":""thai"",""old_name"":""Thailand Cafe"",""outdoor_seating"":""yes"",""takeaway"":""yes""}",463165773,9,Arlington,,,161,,02474,,Massachusetts Avenue,,Boonnoon Market,,,,,,,restaurant,,,,,,,,,,,,,,,,,,,,,,,,,,,,,,,,,,,,,,,,,,,,,,,,,,,,,,,,,,,,,,,,,,,,,POINT (-71.141106 42.405075),node,,,,,,,,,,2972.0,02474
0.0,-71.14132,False,42.404785,1714942492,"{""addr:state"":""MA"",""cuisine"":""tacos"",""old_name:-2015"":""Francesca's Kitchen"",""old_name:2015-2024"":""Sugo Cucina Italiana""}",463165807,5,Arlington,,,162,,02474,,Massachusetts Avenue,,Quilos Taqueria,,,,,,https://quilostaqueria.com/,restaurant,,,,,,,,,,,,,,,,,,,,,,,,,,,,,,,,,,,,,,,,,,,,,,,,,,,,,,,,,,,,,,,,,,,,,POINT (-71.14132 42.404785),node,,,,,,,,,,2972.0,02474
0.0,-71.14254,False,42.405773,1705940922,"{""addr:state"":""MA"",""cuisine"":""pizza"",""name:en"":""OTTO"",""note"":""former Comella's Restaurant and before that Monroe Salt Works, a gift shop"",""old_name"":""Monroe Salt Works"",""takeaway"":""yes""}",463166248,7,Arlington,,,202,,02474,,Massachusetts Avenue,,OTTO,"Su-Th 11:00-21:00; Fr,Sa 11:00-22:00",OTTO,,,,,restaurant,,,,,,,,,,,,,,,,,,,,,,,,,,,,,,,,,,,,,,,,,,,,,,,,,,,,,,,,,,,,,,,,,,,,,POINT (-71.14254 42.405773),node,,,,,,,,,,2972.0,02474
0.0,-71.14857,False,42.412277,1715212301,"{""addr:state"":""MA"",""alt_name"":""Dunkin' Donuts"",""brand"":""Dunkin'"",""brand:wikidata"":""Q847743"",""contact:website"":""https://locations.dunkindonuts.com/en/ma/arlington/369-mass-ave/342071"",""cuisine"":""donut;coffee_shop"",""drive_through"":""no"",""takeaway"":""yes""}",464793778,8,Arlington,,,369-1,,02474,,Massachusetts Avenue,,Dunkin',05:00-19:00,,+1 781-648-1681,342071,,https://locations.dunkindonuts.com/en/ma/arlington/369-mass-ave/342071,fast_food,,,,,,,,,,,,,,,,,,,,,,,,,,,,,,,,,,,,,,,,,,,,,,,,,,,,,,,,,,,,,,,,,,,,,POINT (-71.14857 42.412277),node,,,,,,,,,,2972.0,02474
0.0,-71.15456,False,42.41608,1715210071,"{""addr:state"":""MA"",""brand"":""Domino's"",""brand:wikidata"":""Q839466"",""cuisine"":""pizza"",""takeaway"":""yes""}",464796364,4,Arlington,,,671,,02476,,Massachusetts Avenue,,Domino's,Mo-Th 10:30-23:00; Fr-Sa 10:30-24:00; Su 10:30-23:00,,+1 781-643-2300,3713,,https://pizza.dominos.com/massachusetts/arlington/671-massachusetts-avenue,fast_food,,,,,,,,,,,,,,,,,,,,,,,,,,,,,,,,,,,,,,,,,,,,,,,,,,,,,,,,,,,,,,,,,,,,,POINT (-71.15456 42.41608),node,,,,,,,,,,2972.0,02474
0.0,-71.15532,False,42.416218,1696728707,"{""addr:state"":""MA"",""cuisine"":""sushi""}",464796838,2,Arlington,,,693,,02474,,Massachusetts Avenue,,Mr Sushi,Mo-Su 11:30-20:15,,+1-781-643-4175,,,http://mrsushima.com,restaurant,,,,,,,,,,,,,,,,,,,,,,,,,,,,,,,,,,,,,,,,,,,,,,,,,,,,,,,,,,,,,,,,,,,,,POINT (-71.15532 42.416218),node,,,,,,,,,,2305.0,02476
0.0,-71.155235,False,42.416206,1668119550,"{""cuisine"":""american;modern_american""}",464798760,2,,,,,,,,,,Tryst,,,,,,,restaurant,,,,,,,,,,,,,,,,,,,,,,,,,,,,,,,,,,,,,,,,,,,,,,,,,,,,,,,,,,,,,,,,,,,,,POINT (-71.155235 42.416206),node,,,,,,,,,,2305.0,02476
0.0,-71.1309,False,42.40576,1699270033,"{""addr:state"":""MA"",""cuisine"":""indian"",""delivery"":""yes"",""opening_hours:covid19"":""Mo-Sa 11:00-21:00"",""takeaway"":""yes""}",470526078,6,Somerville,,,1297,,,,Broadway,,Guru The Caterer,,,+1-617-718-0078,,,https://www.guruthecaterer.com/,restaurant,,,,,,,,,,,,,,,,,,,,,,,,,,,,,,,,,,,,,,,,,,,,,,,,,,,,,,,,,,,,,,,,,,,,,POINT (-71.1309 42.40576),node,,,,,,,,,,12757.0,02144
0.0,-71.14058,False,42.34283,1732977948,"{""addr:state"":""MA"",""branch"":""Brighton"",""brand"":""Whole Foods Market"",""brand:wikidata"":""Q1809448"",""check_date"":""2024-10-03"",""check_date:opening_hours"":""2024-10-03""}",471727051,10,Brighton,,,15,,02135,,Washington Street,,Whole Foods Market,Mo-Su 08:00-22:00,,+1-617-738-8187,,,https://www.wholefoodsmarket.com/stores/brighton,,,,,,,,,,,,,,,,,,,,,,,,,,,,,,,,,,,,,,,,,,,,,,,,,,,,,,,supermarket,,,,,,,,,,,,,,,POINT (-71.14058 42.34283),node,,,,,,,,,,2401.0,02135
0.0,-71.14028,False,42.40398,1706061625,"{""diet:vegetarian"":""yes""}",472268410,5,,,,,,,,,,Arlington Diner,Mo-Sa 07:00-15:00; Su 07:00-13:30,,,,,,restaurant,,,,,,,,,,,,,,,,,,,,,,,,,,,,,,,,,,,,,,,,,,,,,,,,,,,,,,,,,,,,,,,,,,,,,POINT (-71.14028 42.40398),node,,,,,,,,,,2972.0,02474
0.0,-71.23669,False,42.509083,1251074919,,472496632,2,,,,,,,,,,Bistro 44,,,,,,,restaurant,,,,,,,,,,,,,,,,,,,,,,,,,,,,,,,,,,,,,,,,,,,,,,,,,,,,,,,,,,,,,,,,,,,,,POINT (-71.23669 42.509083),node,,,,,,,,,,12549.0,01730
0.0,-71.23508,False,42.501385,1251075299,,472497315,1,,,,,,,,,,Bamboo,,,,,,,restaurant,,,,,,,,,,,,,,,,,,,,,,,,,,,,,,,,,,,,,,,,,,,,,,,,,,,,,,,,,,,,,,,,,,,,,POINT (-71.23508 42.501385),node,,,,,,,,,,12549.0,01730
0.0,-71.2352,False,42.50106,1251075311,,472497317,1,,,,,,,,,,Flatbread Pizza Company,,,,,,,restaurant,,,,,,,,,,,,,,,,,,,,,,,,,,,,,,,,,,,,,,,,,,,,,,,,,,,,,,,,,,,,,,,,,,,,,POINT (-71.2352 42.50106),node,,,,,,,,,,12549.0,01730
0.0,-71.20872,False,42.47074,1668044863,"{""brand"":""Market Basket"",""brand:wikidata"":""Q2079198""}",473641811,3,Burlington,,,43,,01803,,Middlesex Turnpike,,Market Basket,Mo-Sa 07:00-21:00; Su 07:00-19:00,,+1 781 273 3401,,,http://www.mydemoulas.net,,,,,,,,,,,,,,,,,,,,,,,,,,,,,,,,,,,,,,,,,,,,,,,,,,,,,,,supermarket,,,,,,,,,,,,,,,POINT (-71.20872 42.47074),node,,,,,,,,,,12133.0,01803
0.0,-71.79832,False,42.269985,1251682477,,478294285,1,,,,,,,,,,Maxwell Silverman's Tool House,,,,,,,restaurant,,,,,,,,,,,,,,,,,,,,,,,,,,,,,,,,,,,,,,,,,,,,,,,,,,,,,,,,,,,,,,,,,,,,,POINT (-71.79832 42.269985),node,,,,,,,,,,12398.0,01608
0.0,-71.53453,False,42.353226,1705375052,"{""brand"":""Price Chopper"",""brand:wikidata"":""Q7242574""}",497913583,4,,,,,,,,,,Price Chopper,,,,,,,,,,,,,,,,,,,,,,,,,,,,,,,,,,,,,,,,,,,,,,,,,,,,,,,,,,,,,supermarket,,,,,,,,,,,,,,,POINT (-71.53453 42.353226),node,,,,,,,,,,12514.0,01752
0.0,-71.09548,False,42.379807,1699270216,"{""cuisine"":""mexican"",""toilets:wheelchair"":""yes"",""wheelchair"":""yes""}",500678894,9,Somerville,,,61,,02143,,Union Square,,El Potro,,,+1 617-666-4200,,,https://elpotromexicangrill.com/,restaurant,,,,,,,,,,,,,,,,,,,,,,,,,,,,,,,,,,,,,,,,,,,,,,,,,,,,,,,,,,,,,,,,,,,,,POINT (-71.09548 42.379807),node,,,,,,,,,,2301.0,02143
0.0,-71.09626,False,42.379528,1683768812,"{""addr:state"":""MA"",""cuisine"":""pizza""}",500678986,4,Somerville,,,16-19,,02143,,Union Square,,Mama Gina's,,,+1 617 625 0116,,,,fast_food,,,,,,,,,,,,,,,,,,,,,,,,,,,,,,,,,,,,,,,,,,,,,,,,,,,,,,,,,,,,,,,,,,,,,POINT (-71.09626 42.379528),node,,,,,,,,,,2301.0,02143
0.0,-71.09821,False,42.3735,1712779836,"{""check_date:opening_hours"":""2023-12-21"",""diet:vegetarian"":""yes"",""wheelchair"":""limited""}",500792317,9,,,,,,,,,,All-Star Sandwich Bar,"Mo-Th 11:00-21:00; Fr,Sa 11:00-22:00; Su 11:00-20:00",,+1 617 868 3065,,,https://www.allstarsandwichbar.com/,restaurant,,,,,,,,,,,,,,,,,,,,,,,,,,,,,,,,,,,,,,,,,,,,,,,,,,,,,,,,,,,,,,,,,,,,,POINT (-71.09821 42.3735),node,,,,,,,,,,12754.0,02139
0.0,-71.09979,False,42.373486,1724609208,"{""cuisine"":""american""}",500792356,5,,,,,,,,,,S&S Restaurant,"Mo-Fr 11:00-19:00; Sa,Su 10:00-19:00",,,,,http://www.sandsrestaurant.com/,restaurant,,,,,,,,,,,,,,,,,,,,,,,,,,,,,,,,,,,,,,,,,,,,,,,,,,,,,,,,,,,,,,,,,,,,,POINT (-71.09979 42.373486),node,,,,,,,,,,12754.0,02139
0.0,-71.260635,False,42.366528,1255532810,,530711262,1,,,,,,,,,,,,,,,,,restaurant,,,,,,,,,,,,,,,,,,,,,,,,,,,,,,,,,,,,,,,,,,,,,,,,,,,,,,,,,,,,,,,,,,,,,POINT (-71.260635 42.366528),node,,,,,,,,,,2589.0,02453
0.0,-71.25718,False,42.368156,1258929364,,530711266,2,,,,,,,,,,,,,,,,,restaurant,,,,,,,,,,,,,,,,,,,,,,,,,,,,,,,,,,,,,,,,,,,,,,,,,,,,,,,,,,,,,,,,,,,,,POINT (-71.25718 42.368156),node,,,,,,,,,,2589.0,02453
0.0,-71.26363,False,42.364483,1408655518,,530711304,4,,,,,,,,,,,,,,,,,cafe,,,,,,,,,,,,,,,,,,,,,,,,,,,,,,,,,,,,,,,,,,,,,,,,,,,,,,,,,,,,,,,,,,,,,POINT (-71.26363 42.364483),node,,,,,,,,,,2589.0,02453
0.0,-71.25994,False,42.365673,1255532814,,530711305,1,,,,,,,,,,,,,,,,,cafe,,,,,,,,,,,,,,,,,,,,,,,,,,,,,,,,,,,,,,,,,,,,,,,,,,,,,,,,,,,,,,,,,,,,,POINT (-71.25994 42.365673),node,,,,,,,,,,2589.0,02453
0.0,-71.259155,False,42.369247,1334707080,,530711306,2,,,,,,,,,,,,,,,,,cafe,,,,,,,,,,,,,,,,,,,,,,,,,,,,,,,,,,,,,,,,,,,,,,,,,,,,,,,,,,,,,,,,,,,,,POINT (-71.259155 42.369247),node,,,,,,,,,,2589.0,02453
0.0,-71.261055,False,42.36562,1255532817,,530711314,1,,,,,,,,,,,,,,,,,restaurant,,,,,,,,,,,,,,,,,,,,,,,,,,,,,,,,,,,,,,,,,,,,,,,,,,,,,,,,,,,,,,,,,,,,,POINT (-71.261055 42.36562),node,,,,,,,,,,2589.0,02453
0.0,-71.09684,False,42.380833,1713153785,"{""addr:state"":""MA"",""check_date"":""2023-06-18"",""outdoor_seating"":""yes""}",530790467,9,Somerville,,,11,,02143,,Bow Street,,Bloc,07:00-19:00; Th 07:00-21:00,,,,,https://blocsomerville.com,cafe,,,,,,,,,,,,,,,,,,,,,,,,,,,,,,,,,,,,,,,,,,,,,,,,,,,,,,,,,,,,,,,,,,,,,POINT (-71.09684 42.380833),node,,,,,,,,,,2301.0,02143
0.0,-71.07451,False,42.338478,1558648944,,530872406,2,,,,,,,,,,Flour,"Mo-Fr 06:30-08:00, Su 08:00-05:00; Sa 08:00-06:00",,,,,,cafe,,,,,,,,,,,,,,,,,,,,,,,,,,,,,,,,,,,,,,,,,,,,,,,,,,,,,,,,,,,,,,,,,,,,,POINT (-71.07451 42.338478),node,,,,,,,,,,12651.0,02118
0.0,-71.25799,False,42.39758,1734653848,"{""addr:state"":""MA"",""check_date"":""2024-12-11"",""description"":""kitchen closes at 10pm"",""internet_access:fee"":""no"",""toilets"":""yes"",""toilets:access"":""public"",""toilets:unisex"":""yes""}",530967751,6,Waltham,,,380,,02451,,Winter Street,,Copper House Tavern,Mo-Th 11:30-23:00; Fr 11:30-24:00; Sa 11:00-24:00; Su 11:00-22:00,,+1 781-890-8989,,,http://copperhousetavern.com/,restaurant,,,,,,,,,,,,,,,,wlan,,,,,,,,,,,,,,,,,,,,,,,,,,,,,,,,,,,,,,,,,,,,,,,,,,,,,POINT (-71.25799 42.39758),node,,,,,,,,,,12674.0,02451
0.0,-71.26633,False,42.396397,1480716523,,530967753,2,,,,,,,,,,,,,,,,,restaurant,,,,,,,,,,,,,,,,,,,,,,,,,,,,,,,,,,,,,,,,,,,,,,,,,,,,,,,,,,,,,,,,,,,,,POINT (-71.26633 42.396397),node,,,,,,,,,,12674.0,02451
0.0,-71.2233,False,42.378723,1715212301,"{""addr:state"":""MA"",""alt_name"":""Dunkin' Donuts"",""brand"":""Dunkin'"",""brand:wikidata"":""Q847743"",""contact:website"":""https://locations.dunkindonuts.com/en/ma/waltham/53-linden-st/330407"",""cuisine"":""donut;coffee_shop"",""drive_through"":""no"",""takeaway"":""yes""}",530969569,7,Waltham,,,53,,02452,,Linden Street,,Dunkin',05:00-21:00,,+1 781-899-7742,330407,,https://locations.dunkindonuts.com/en/ma/waltham/53-linden-st/330407,fast_food,,,,,,,,,,,,,,,,,,,,,,,,,,,,,,,,,,,,,,,,,,,,,,,,,,,,,,,,,,,,,,,,,,,,,POINT (-71.2233 42.378723),node,,,,,,,,,,2971.0,02452
0.0,-71.26187,False,42.39825,1705375052,"{""addr:state"":""MA"",""brand"":""Bertucci's"",""brand:wikidata"":""Q4895917"",""cuisine"":""pizza;italian"",""delivery"":""yes"",""diet:vegetarian"":""yes"",""payment:american_express"":""yes"",""payment:cash"":""yes"",""payment:cheque"":""yes"",""payment:diners_club"":""yes"",""payment:discover_card"":""yes"",""payment:jcb"":""yes"",""payment:mastercard"":""yes"",""payment:visa"":""yes"",""reservation"":""yes"",""takeaway"":""yes""}",530970997,6,Waltham,,,475,,02451,,Winter Street,,Bertucci's,Su-We 11:00-21:30; Th 11:00-22:00; Fr-Sa 11:00-23:00,,+1-781-684-0650,,,https://locations.bertuccis.com/us/ma/waltham/475-winter-street,restaurant,,,,,,,,,,,,,,,,,,,,,,,,,,,,,,,,,,,,,,,,,,,,,,,,,,,,,,,,,,,,,,,,,,,,,POINT (-71.26187 42.39825),node,,,,,,,,,,12674.0,02451
0.0,-71.26276,False,42.39803,1698459998,"{""addr:state"":""MA"",""cuisine"":""asian"",""diet:vegetarian"":""yes"",""takeaway"":""yes"",""toilets"":""yes""}",530971007,4,Waltham,,,475,,02451,,Winter Street,honestrestaurantwaltham@gmail.com,HonesT,,,+1 781-373-9265,,,https://honestrestaurantsusa.com/,restaurant,,,,,,,,,,,,,,,,,,,,,,,,,,,,,,,,,,,,,,,,,,,,,,,,,,,,,,,,,,,,,,,,,,,,,POINT (-71.26276 42.39803),node,,,,,,,,,,12674.0,02451
0.0,-71.262276,False,42.398132,1677475153,"{""addr:state"":""MA"",""cuisine"":""japanese;asian"",""delivery"":""yes"",""diet:vegetarian"":""yes"",""takeaway"":""yes"",""website:menu"":""http://umiwaltham.com/menu.asp""}",530971018,3,Waltham,,,475,,02451,,Winter Street,,Umi,Mo-Th 11:30-22:00; Fr 11:30-22:30; Sa 12:00-22:30; Su 12:00-22:00,,+1-781-890-0089;+1-781-890-9645,,,http://umiwaltham.com,restaurant,,,,,,,,,,,,,,,,,,,,,,,,,,,,,,,,,,,,,,,,,,,,,,,,,,,,,,,,,,,,,,,,,,,,,POINT (-71.262276 42.398132),node,,,,,,,,,,12674.0,02451
0.0,-71.23706,False,42.37164,1720699824,"{""addr:state"":""MA"",""cuisine"":""breakfast;lunch"",""old_name"":""Asian Grill""}",532967422,5,Waltham,,,265,,02451,,Moody Street,,In A Pickle,"Mo,We,Th,Fr 08:00-15:00, Tu off, Sa-Su 07:00-15:00",,+1 781 891 1212,,,https://www.in-a-pickle.com/,restaurant,,,,,,,,,,,,,,,,,,,,,,,,,,,,,,,,,,,,,,,,,,,,,,,,,,,,,,,,,,,,,,,,,,,,,POINT (-71.23706 42.37164),node,,,,,,,,,,2589.0,02453
0.0,-71.23707,False,42.37157,1690234046,"{""addr:state"":""MA"",""cuisine"":""mexican""}",532967436,7,Waltham,,,273,,02451,,Moody Street,,Guanachapi's Mexican and Latin Food,Mo-Fr 10:00-21:30; Sa-Su 09:00-21:30,,781-788-8590,,,http://orderguanachapisrestaurant.com/,fast_food,,,,,,,,,,,,,,,,,,,,,,,,,,,,,,,,,,,,,,,,,,,,,,,,,,,,,,,,,,,,,,,,,,,,,POINT (-71.23707 42.37157),node,,,,,,,,,,2589.0,02453
0.0,-71.23671,False,42.371307,1658029925,"{""addr:state"":""MA"",""cuisine"":""korean;japanese""}",532967453,3,Waltham,,,286,,02451,,Moody Street,,Ponzu Izakaya,"Mo-Th 11:30-21:45,Fr 11:30-22:45,Sa 12:30-22:45,Su 12:30-21:45",,+1 781 736 9188,,,https://www.ponzuizakaya.com,restaurant,,,,,,,,,,,,,,,,,,,,,,,,,,,,,,,,,,,,,,,,,,,,,,,,,,,,,,,,,,,,,,,,,,,,,POINT (-71.23671 42.371307),node,,,,,,,,,,2589.0,02453
0.0,-71.236725,False,42.371204,1658029925,"{""addr:state"":""MA""}",532967469,3,Waltham,,,288,,02453,,Moody Street,,Tara Restaurant Pizza & More,Mo-Su 11:00-24:00,,+1 781 647 0355,,,https://www.tararestaurantpizza.com,restaurant,,,,,,,,,,,,,,,,,,,,,,,,,,,,,,,,,,,,,,,,,,,,,,,,,,,,,,,,,,,,,,,,,,,,,POINT (-71.236725 42.371204),node,,,,,,,,,,2589.0,02453
0.0,-71.23694,False,42.3726,1681609385,"{""addr:state"":""MA"",""cuisine"":""mexican"",""indoor_seating"":""yes"",""opening_hours:url"":""https://www.margs.com/waltham"",""outdoor_seating"":""yes"",""takeaway"":""yes""}",532967517,6,Waltham,,,211,,02453,,Moody Street,,Margarita's,Su 15:00-24:00; Mo off; Tu-Sa 15:00-01:00,,+1 781 893 9990,,,https://www.margs.com/waltham,restaurant,,,,,yes,,,,,,,,,,,,,,,,,,,,,,,,,,,,,,,,,,,,,,,,,,,,,,,,,,,,,,,,,,,,,,,,POINT (-71.23694 42.3726),node,,,,,,,,,,2589.0,02453
0.0,-71.26077,False,42.39509,1255672187,,533088692,1,,,,,,,,,,D'Angelo,,,,,,,fast_food,,,,,,,,,,,,,,,,,,,,,,,,,,,,,,,,,,,,,,,,,,,,,,,,,,,,,,,,,,,,,,,,,,,,,POINT (-71.26077 42.39509),node,,,,,,,,,,12674.0,02451
0.0,-71.26101,False,42.394985,1715212301,"{""addr:state"":""MA"",""alt_name"":""Dunkin' Donuts"",""brand"":""Dunkin'"",""brand:wikidata"":""Q847743"",""cuisine"":""donut;coffee_shop"",""drive_through"":""no"",""takeaway"":""yes""}",533088699,2,Waltham,,,75,,02451,,3rd Avenue,,Dunkin' Donuts,Mo-Fr 04:30-19:00; Sa 05:00-17:00; Su 06:00-16:30,,+1 781-890-2936,340675,,https://locations.dunkindonuts.com/en/ma/waltham/75-3rd-ave/340675,fast_food,,,,,,,,,,,,,,,,,,,,,,,,,,,,,,,,,,,,,,,,,,,,,,,,,,,,,,,,,,,,,,,,,,,,,POINT (-71.26101 42.394985),node,,,,,,,,,,12674.0,02451
0.0,-72.40092,False,42.541546,1256309002,,538968029,2,,,,,,,,,,Deja Brew,,,,,,,cafe,,,,,,,,,,,,,,,,,,,,,,,,,,,,,,,,,,,,,,,,,,,,,,,,,,,,,,,,,,,,,,,,,,,,,POINT (-72.40092 42.541546),node,,,,,,,,,,12251.0,01379
0.0,-71.61474,False,42.540524,1718839569,"{""addr:state"":""MA"",""alt_name"":""Dunkin' Donuts"",""brand"":""Dunkin'"",""brand:wikidata"":""Q847743"",""cuisine"":""donut;coffee_shop"",""fixme:atp"":""Check if still exists. No corresponding ATP object."",""takeaway"":""yes""}",539692516,5,Devens,,,10,,01432,,Andrews Parkway,,Dunkin',05:00-19:00,,+1 978-772-3296,,,https://locations.dunkindonuts.com/en/ma/devens/10-andrews-parkway/341685,fast_food,,,,,,,,,,,,,,,,,,,,,,,,,,,,,,,,,,,,,,,,,,,,,,,,,,,,,,,,,,,,,,,,,,,,,POINT (-71.61474 42.540524),node,,,,,,,,,,12288.0,01434
0.0,-71.09994,False,42.36358,1707674961,"{""check_date"":""2024-02-11"",""cuisine"":""indian""}",541316331,5,,,,401,,02139,,Massachusetts Avenue,,Desi Dhaba,,,,,,http://www.desidhaba.net/,restaurant,,,,,,,,,,,,,,,,,,,,,,,,,,,,,,,,,,,,,,,,,,,,,,,,,,,,,,,,,,,,,,,,,,,,,POINT (-71.09994 42.36358),node,,,,,,,,,,12754.0,02139
0.0,-71.141754,False,42.389114,1727954697,"{""addr:state"":""MA"",""branch"":""Fresh Pond"",""brand"":""Whole Foods Market"",""brand:wikidata"":""Q1809448"",""check_date"":""2024-10-03"",""check_date:opening_hours"":""2024-10-03""}",544104683,8,Cambridge,,,200,,02138,,Alewife Brook Parkway,,Whole Foods Market,Mo-Su 08:00-22:00,,+1 617-491-0040,freshpond,,https://www.wholefoodsmarket.com/stores/freshpond,,,,,,,,,,,,,,,,,,,,,,,,,,,,,,,,,,,,,,,,,,,,,,,,,,,,,,,supermarket,,,,,,,,,,,,,,,POINT (-71.141754 42.389114),node,,,,,,,,,,12738.0,02138
0.0,-71.14089,False,42.39368,1715402652,"{""addr:state"":""MA"",""cuisine"":""seafood""}",544354282,4,Cambridge,,,149,,02140,,Alewife Brook Parkway,,Summer Shack,,,,,,,restaurant,,,,,,,,,,,,,,,,,,,,,,,,,,,,,,,,,,,,,,,,,,,,,,,,,,,,,,,,,,,,,,,,,,,,,POINT (-71.14089 42.39368),node,,,,,,,,,,2869.0,02140
0.0,-71.56371,False,42.439945,1324130599,,549268033,3,,,,,,,,,,Bolton Spring Farm,,,,,,,,,,,,,,,,,,,,,,,,,,,,,,,,,,,,,,,,,,,,,,,,,,,,,,,,,,,,,farm,,,,,,,,,,,,,,,POINT (-71.56371 42.439945),node,,,,,,,,,,11980.0,01740
0.0,-71.53799,False,42.435368,1717159276,,549298393,5,,,,,,,,,,Applefield Farm,"Apr 15-Oct 31:Mo,Th,Fr 10:00-18:00; Sa,Su 10:00-17:00",,,,,,,,,,,,,,,,,,,,,,,,,,,,,,,,,,,,,,,,,,,,,,,,,,,,,,,,,,,,farm,,,,,,,,,,,,,,,POINT (-71.53799 42.435368),node,,,,,,,,,,12129.0,01775
0.0,-71.11957,False,42.389217,1715212301,"{""addr:state"":""MA"",""alt_name"":""Dunkin' Donuts"",""brand"":""Dunkin'"",""brand:wikidata"":""Q847743"",""contact:website"":""https://locations.dunkindonuts.com/en/ma/cambridge/1-white-st/300252"",""cuisine"":""donut;coffee_shop"",""drive_through"":""no"",""indoor_seating"":""yes"",""outdoor_seating"":""no"",""takeaway"":""yes"",""wheelchair"":""yes""}",560218266,16,Cambridge,,,1,,02140,,White Street,,Dunkin',Mo-Su 05:00-19:00,,+1 617-354-8336,300252,,https://locations.dunkindonuts.com/en/ma/cambridge/1-white-st/300252,fast_food,,,,,,,,,,,,,,,,,,,,,,,,,,,,,,,,,,,,,,,,,,,,,,,,,,,,,,,,,,,,,,,,,,,,,POINT (-71.11957 42.389217),node,,,,,,,,,,2869.0,02140
0.0,-71.1415,False,42.405388,1735679844,"{""check_date"":""2024-12-31"",""cuisine"":""pizza""}",560219062,2,,,,,,,,,,Olympic Pizza,,,,,,,fast_food,,,,,,,,,,,,,,,,,,,,,,,,,,,,,,,,,,,,,,,,,,,,,,,,,,,,,,,,,,,,,,,,,,,,,POINT (-71.1415 42.405388),node,,,,,,,,,,2972.0,02474
0.0,-72.726746,False,42.112755,1719184314,"{""brand"":""Price Rite"",""brand:wikidata"":""Q7242560""}",560826560,8,,,,,,01085,,,,Price Rite,,,,,,,,,,,,,,,,,,,,,,,,,,,,,,,,,,,,,,,,,,,,,,,,,,,,,,,,,,,,,supermarket,,,,,,,,,,,,,,,POINT (-72.726746 42.112755),node,,,,,,,,,,12438.0,01085
0.0,-72.72286,False,42.111828,1721234098,"{""brand"":""Big Y"",""brand:wikidata"":""Q4906701""}",560826563,5,,,,,,01085,,,,Big Y,,,,,,,,,,,,,,,,,,,,,,,,,,,,,,,,,,,,,,,,,,,,,,,,,,,,,,,,,,,,,supermarket,,,,,,,,,,,,,,,POINT (-72.72286 42.111828),node,,,,,,,,,,12438.0,01085
0.0,-71.79693,False,42.21241,1716373511,"{""addr:state"":""MA"",""brand"":""Wendy's"",""brand:wikidata"":""Q550258"",""cuisine"":""burger"",""drive_through"":""yes"",""opening_hours:drive_through"":""Mo-Su 06:30-01:00"",""takeaway"":""yes""}",561089816,9,Worcester,,,560,,01607,,Southwest Cutoff,,Wendy's,06:30-22:00,,+1 508-793-1601,,,https://locations.wendys.com/united-states/ma/worcester/560-southwest-cutoff,fast_food,,,,,,,,,,,,,,,,,,,,,,,,,,,,,,,,,,,,,,,,,,,,,,,,,,,,,,,,,,,,,,,,,,,,,POINT (-71.79693 42.21241),node,,,,,,,,,,2394.0,01607
0.0,-71.79831,False,42.21349,1705375052,"{""brand"":""Price Chopper"",""brand:wikidata"":""Q7242574""}",561090178,6,Worcester,,,564,,01607,,Southwest Cutoff,,Price Chopper,Mo-Su 06:00-23:00,,+1-508-752-3737,,,,,,,,,,,,,,,,,,,,,,,,,,,,,,,,,,,,,,,,,,,,,,,,,,,,,,,,,,supermarket,,,,,,,,,,,,,,,POINT (-71.79831 42.21349),node,,,,,,,,,,2394.0,01607
0.0,-71.798645,False,42.1419,1740112064,"{""addr:state"":""MA""}",561097773,8,Sutton,,,96,,01590,,Eight Lots Road,,Silvermine Farm,,,+1-508-865-5335,,,https://organicfarmfood.org/view/silvermine-farm,,,,,,,,,,,,,,,,,,,,,,,,,,,,,,,,,,,,,,,,,,,,,,,,,only,,,,,,farm,,,,,,,,,,,,,,,POINT (-71.798645 42.1419),node,,,,,,,,,,12394.0,01590
0.0,-71.137596,False,42.35375,1723640701,"{""contact:facebook"":""yomaboston"",""contact:twitter"":""yomaboston"",""cuisine"":""burmese"",""website:menu"":""http://yomaboston.com/menu""}",562619361,4,,,,5,,02134,,North Beacon Street,,Yoma,,,617-783-1372,,,http://yomaboston.com,restaurant,,,,,,,,,,,,,,,,,,,,,,,,,,,,,,,,,,,,,,,,,,,,,,,,,,,,,,,,,,,,,,,,,,,,,POINT (-71.137596 42.35375),node,,,,,,,,,,12737.0,02134
0.0,-71.14338,False,42.38993,1707444727,"{""addr:state"":""MA"",""branch"":""Cambridge Fresh Pond"",""brand"":""Trader Joe's"",""brand:wikidata"":""Q688825""}",562620568,7,Cambridge,,,211,,02138,,Alewife Brook Parkway,,Trader Joe's,Mo-Su 08:00-21:00,,+1 617-498-3201,517,,https://locations.traderjoes.com/ma/cambridge/517/,,,,,,,,,,,,,,,,,,,,,,,,,,,,,,,,,,,,,,,,,,,,,,,,,,,,,,,supermarket,,,,,,,,,,,,,,,POINT (-71.14338 42.38993),node,,,,,,,,,,12738.0,02138
0.0,-71.10065,False,42.36336,1699270097,"{""addr:state"":""MA""}",564531110,10,Cambridge,,,424,,02139,,Massachusetts Avenue,,Mariposa Bakery,Tu-Fr 08:00-15:00; Sa 08:00-16:00; Su 09:00-15:00,,+1 617 876 6500,,,https://www.mariposabakery.com/,cafe,,,,,,,,,,,,,,,,,,,,,,,,,,,,,,,,,,,,,,,,,,,,,,,,,,,,,,,,,,,,,,,,,,,,,POINT (-71.10065 42.36336),node,,,,,,,,,,12754.0,02139
0.0,-71.103004,False,42.364174,1715702000,"{""addr:state"":""MA"",""air_conditioning"":""yes"",""check_date"":""2024-05-14"",""cuisine"":""chinese"",""reservation"":""yes"",""wheelchair"":""yes""}",564536086,6,Cambridge,,,24,,02139,,Pearl Street,,Lanner Noodles & Bar,"Mo-Fr 11:30-14:30,17:00-21:30; Sa-Su 11:30-21:30",,+1 617 395 3206,,,https://www.lannernoodles.com/,restaurant,,,,,,,,,,,,,,,,,,,,,,,,,,,,,,,,,,,,,,,,,,,,,,,,,,,,,,,,,,,,,,,,,,,,,POINT (-71.103004 42.364174),node,,,,,,,,,,12754.0,02139
0.0,-71.10294,False,42.364223,1683820323,"{""check_date"":""2023-05-11"",""cuisine"":""thai"",""delivery"":""yes"",""takeaway"":""yes""}",564536105,4,Cambridge,,,20,,02139,,Pearl Street,,Pepper Sky's,Mo-Fr 11:30-22:00; Sa 12:00-22:00; Su 17:00-22:00,,+16174922541,,,http://www.pepperskys.com/,restaurant,,,,,,,,,,,,,,,,,,,,,,,,,,,,,,,,,,,,,,,,,,,,,,,,,,,,,,,,,,,,,,,,,,,,,POINT (-71.10294 42.364223),node,,,,,,,,,,12754.0,02139
0.0,-71.77616,False,42.196537,1705375052,"{""brand"":""LongHorn Steakhouse"",""brand:wikidata"":""Q3259007"",""cuisine"":""steak_house""}",564614586,5,,,,,,,,,,LongHorn Steakhouse,,,,,,,restaurant,,,,,,,,,,,,,,,,,,,,,,,,,,,,,,,,,,,,,,,,,,,,,,,,,,,,,,,,,,,,,,,,,,,,,POINT (-71.77616 42.196537),node,,,,,,,,,,12214.0,01527
0.0,-71.20637,False,42.330124,1727954697,"{""addr:state"":""MA"",""branch"":""Newton"",""brand"":""Whole Foods Market"",""brand:wikidata"":""Q1809448"",""check_date"":""2024-10-03"",""check_date:opening_hours"":""2024-10-03"",""wheelchair"":""yes""}",566200280,7,Newton,,,916,,02461,,Walnut Street,,Whole Foods Market,Mo-Su 08:00-21:00,,+1 617-969-1141,newton,,https://www.wholefoodsmarket.com/stores/newton,,,,,,,,,,,,,,,,,,,,,,,,,,,,,,,,,,,,,,,,,,,,,,,,,,,,,,,supermarket,,,,,,,,,,,,,,,POINT (-71.20637 42.330124),node,,,,,,,,,,2779.0,02461
0.0,-71.10789,False,42.35768,1684875938,"{""check_date"":""2023-05-16"",""cuisine"":""pizza""}",566889950,6,,,,263,,02139,,Brookline Street,,Cambridge Pizzeria,Mo-Su 11:00-22:00,,+1 617 547 4588,,,http://cambridgepizzeria.net/,fast_food,,,,,,,,,,,,,,,,,,,,,,,,,,,,,,,,,,,,,,,,,,,,,,,,,,,,,,,,,,,,,,,,,,,,,POINT (-71.10789 42.35768),node,,,,,,,,,,12754.0,02139
0.0,-71.107796,False,42.357395,1741426067,"{""cuisine"":""uyghur"",""drive_through"":""no"",""level"":""0"",""outdoor_seating"":""no""}",566890089,8,,,,272,,02139,,Brookline Street,,Jahunger Taste of Uyghur,Mo Closed Tu-Fri 5-9:30 PM Sat Noon-9:30 PM Sun Noon-8 PM,,617-801-9725,,,https://www.jahunger.com/,restaurant,,,,,,,,,,,,,,,,,,,,,,,,,,,,,,,,,,,,,,,,,,,,,,,,,,,,,,,,,,,,,,,,,,,,,POINT (-71.107796 42.357395),node,,,,,,,,,,12754.0,02139
0.0,-70.78106,False,42.633453,1258650746,"{""cuisine"":""fish""}",567083135,3,,,,,,,,,,Village Restaurant,,,,,,,restaurant,,,,,,,,,,,,,,,,,,,,,,,,,,,,,,,,,,,,,,,,,,,,,,,,,,,,,,,,,,,,,,,,,,,,,POINT (-70.78106 42.633453),node,,,,,,,,,,12364.0,01929
0.0,-72.59918,False,42.586308,1550709009,"{""cuisine"":""regional""}",570829744,4,,,,44,,,,Hope Street,,Hope and Olive,,,,,,https://www.hopeandolive.com/,restaurant,,,,,,,,,,,,,,,,,,,,,,,,,knowledge,,,,,,,,,,,,,,,,,,,,,,,,,,,,,,,,,,,,,,,,,,,,POINT (-72.59918 42.586308),node,,,,,,,,,,2885.0,01301
0.0,-72.602806,False,42.588028,1741747410,,570960089,5,,,,204,,01301,,Main Street,,Bonnie B's Country Kitchen,,,,,,,cafe,,,,,,,,,,,,,,,,,,,,,,,,,knowledge,,,,,,,,,,,,,,,,,,,,,,,,,,,,,,,,,,,,,,,,,,,,POINT (-72.602806 42.588028),node,,,,,,,,,,2885.0,01301
0.0,-71.14279,False,42.390083,1504005406,,571884623,2,,,,,,,,,,Bon Me,,,,,,,restaurant,,,,,,,,,,,,,,,,,,,,,,,,,,,,,,,,,,,,,,,,,,,,,,,,,,,,,,,,,,,,,,,,,,,,,POINT (-71.14279 42.390083),node,,,,,,,,,,12738.0,02138
0.0,-71.1012,False,42.363693,1706213107,"{""cuisine"":""chinese"",""disused"":""yes"",""outdoor_seating"":""no"",""wheelchair"":""limited""}",572609876,8,,,,464,,,,Massachusetts Avenue,,Mary Chung,"Su,Mo,We,Th 11:30-22:00; Tu off; Fr-Sa 11:30-23:00",,,,,,restaurant,,,,,,,,,,,,,,,,,,,,,,,,,,,,,,,,,,,,,,,,,,,,,,,,,,,,,,,,,,,,,,,,,,,,,POINT (-71.1012 42.363693),node,,,,,,,,,,12754.0,02139
0.0,-71.14244,False,42.388668,1715384444,"{""addr:state"":""MA"",""branch"":""Cambridge, Fresh Pond"",""brand"":""Starbucks"",""brand:wikidata"":""Q37158"",""cost:coffee"":""$1.75"",""cuisine"":""coffee_shop"",""official_name"":""Starbucks Coffee"",""takeaway"":""yes""}",572615677,7,Cambridge,,,222,,02138,,Alewife Brook Parkway,,Starbucks,,,+1 617-876-1070,14891,,https://www.starbucks.com/store-locator/store/14891/cambridge-fresh-pond-222-alewife-brook-parkway-cambridge-ma-021381102-u,cafe,,,,,,,,,,,,,,,,,,,,,,,,,,,,,,,,,,,,,,,,,,,,,,,,,,,,,,,,,,,,,,,,,,,,,POINT (-71.14244 42.388668),node,,,,,,,,,,12738.0,02138
0.0,-71.14292,False,42.389973,1715212301,"{""addr:state"":""MA"",""alt_name"":""Dunkin' Donuts"",""brand"":""Dunkin'"",""brand:wikidata"":""Q847743"",""contact:website"":""https://locations.dunkindonuts.com/en/ma/cambridge/201-alewife-brook-pky/304598"",""cuisine"":""donut;coffee_shop"",""drive_through"":""no"",""takeaway"":""yes""}",572618039,10,Cambridge,,,201,,02138,,Alewife Brook Parkway,,Dunkin',Mo-Su 05:00-20:00,,+1 617-492-9107,304598,,https://locations.dunkindonuts.com/en/ma/cambridge/201-alewife-brook-pky/304598,fast_food,,,,,,,,,,,,,,,,,,,,,,,,,,,,,,,,,,,,,,,,,,,,,,,,,,,,,,,,,,,,,,,,,,,,,POINT (-71.14292 42.389973),node,,,,,,,,,,12738.0,02138
0.0,-71.07046,False,42.361935,1267121956,"{""cuisine"":""italian""}",573364103,3,,,,,,,,,,Scampo,,,,,,,restaurant,,,,,,,,,,,,,,,,,,,,,,,,,,,,,,,,,,,,,,,,,,,,,,,,,,,,,,,,,,,,,,,,,,,,,POINT (-71.07046 42.361935),node,,,,,,,,,,12620.0,02114
0.0,-71.07023,False,42.361755,1259469510,,573364344,2,,,,,,,,,,Clink,,,,,,,restaurant,,,,,,,,,,,,,,,,,,,,,,,,,,,,,,,,,,,,,,,,,,,,,,,,,,,,,,,,,,,,,,,,,,,,,POINT (-71.07023 42.361755),node,,,,,,,,,,12620.0,02114
0.0,-71.235275,False,42.37659,1690830587,"{""addr:state"":""MA"",""cuisine"":""chinese"",""name:zh"":""\u6625\u98CE\u4E00\u9762""}",573467229,5,Waltham,,,617,,02452,,Main Street,,Aries Noodle and Dumpling,Mo-Su 11:00-22:00,,+17812090008,,,,restaurant,,,,,,,,,,,,,,,,,,,,,,,,,,,,,,,,,,,,,,,,,,,,,,,,,,,,,,,,,,,,,,,,,,,,,POINT (-71.235275 42.37659),node,,,,,,,,,,2971.0,02452
0.0,-71.24589,False,42.37636,1716119876,"{""addr:state"":""MA"",""air_conditioning"":""yes"",""brand"":""Subway"",""brand:wikidata"":""Q244457"",""cuisine"":""sandwich"",""diet:vegan"":""yes"",""diet:vegetarian"":""yes"",""indoor_seating"":""yes"",""outdoor_seating"":""no"",""takeaway"":""yes""}",573493054,12,Waltham,,,869;871,,02452,,Main Street,,Subway,Mo-Su 09:00-22:00,,+1 781-209-8777,,,https://restaurants.subway.com/united-states/ma/waltham/869-871-main-st,fast_food,,,,,,,,,,,,,,,,,,,,,,,,,,,,,,,,,,,,,,,,,,,,,,,,,,,,,,,,,,,,,,,,,,,,,POINT (-71.24589 42.37636),node,,,,,,,,,,12674.0,02451
0.0,-71.246086,False,42.376366,1693883190,"{""air_conditioning"":""yes"",""contact:instagram"":""mistermonut"",""cuisine"":""donut"",""diet:vegan"":""yes"",""diet:vegetarian"":""yes"",""indoor_seating"":""yes"",""outdoor_seating"":""no""}",573493061,15,,,,873,,,,,mailto:nick@justkdog.com,Mister Monut,We-Sa 07:30-19:00; Su 08:00-17:00,,781-893-1809,,,https://mistermonut.com/#/,cafe,,,,,,,,,,,,,,,,,,,,,,,,,,,,,,,,,,,,,,,,,,,,,,,,,,,,,,,,,,,,,,,,,,,,,POINT (-71.246086 42.376366),node,,,,,,,,,,12674.0,02451
0.0,-71.24666,False,42.376408,1691676542,"{""indoor_seating"":""yes"",""outdoor_seating"":""no""}",573493068,7,,,,,,,,,,Lena's,,,,,,,fast_food,,,,,,,,,,,,,,,,,,,,,,,,,,,,,,,,,,,,,,,,,,,,,,,,,,,,,,,,,,,,,,,,,,,,,POINT (-71.24666 42.376408),node,,,,,,,,,,12674.0,02451
0.0,-71.24423,False,42.376392,1691623830,"{""air_conditioning"":""yes"",""cuisine"":""chinese"",""diet:vegan"":""yes"",""diet:vegetarian"":""yes"",""indoor_seating"":""yes"",""outdoor_seating"":""no""}",573493093,8,,,,,,,,,,Mulan,Mo-Su 11:00-21:00,,7816428888;7816429263,,,https://mulantaiwanwaltham.com/,restaurant,,,,,,,,,,,,,,,,,,,,,,,,,,,,,,,,,,,,,,,,,,,,,,,,,,,,,,,,,,,,,,,,,,,,,POINT (-71.24423 42.376392),node,,,,,,,,,,12674.0,02451
0.0,-71.2483,False,42.37605,1690210834,"{""cuisine"":""japanese""}",573551329,2,,,,922,,02451,,,,Fin's Sushi and Grill,Mo-Th 11:30-21:00; Fr-Sa 11:30-22:00; Su 12:00-21:00,,781-281-8888,,,https://finsboston.com/,restaurant,,,,,,,,,,,,,,,,wlan,,,,,,,,,,,,,,,,,,,,,,,,,,,,,,,,,,,,,,,,,,,,,,,,,,,,,POINT (-71.2483 42.37605),node,,,,,,,,,,12674.0,02451
0.0,-71.2478,False,42.37611,1259435833,,573551333,1,,,,,,,,,,Pizza & Wings,,,,,,,fast_food,,,,,,,,,,,,,,,,,,,,,,,,,,,,,,,,,,,,,,,,,,,,,,,,,,,,,,,,,,,,,,,,,,,,,POINT (-71.2478 42.37611),node,,,,,,,,,,12674.0,02451
0.0,-71.09685,False,42.363075,1684592490,"{""check_date"":""2023-05-20"",""cuisine"":""chinese"",""outdoor_seating"":""no"",""wheelchair"":""limited""}",575423879,8,,,,792,,02139,,Main Street,,The Royal East,,,+1 617 661 1660,,,http://www.royaleast.com/,restaurant,,,,,,,,,,,,,,,,,,,,,,,,,,,,,,,,,,,,,,,,,,,,,,,,,,,,,,,,,,,,,,,,,,,,,POINT (-71.09685 42.363075),node,,,,,,,,,,12754.0,02139
0.0,-71.100945,False,42.369133,1699269796,"{""addr:state"":""MA"",""cuisine"":""asian;korean;barbecue""}",581466119,6,Cambridge,,,158,,02139,,Prospect Street,koreanaboston@gmail.com,Koreana,Su-Th 11:30-22:30; Fr-Sa 11:30-24:00,,+1 617 576 8661,,,https://koreanaboston.com/,restaurant,,,,,,,,,,,,,,,,,,,,,,,,,,,,,,,,,,,,,,,,,,,,,,,,,,,,,,,,,,,,,,,,,,,,,POINT (-71.100945 42.369133),node,,,,,,,,,,12754.0,02139
0.0,-71.45447,False,42.43181,1523485304,"{""addr:state"":""MA"",""internet_access:fee"":""customers""}",581974847,5,Maynard,,,102,,01754,,Main Street,,Boston Bean House,Mo-Fr 06:00-14:00; Sa 07:00-14:00,,+1 978 897 8907,,,http://web.maynard.ma.us/biz/bbhouse/,cafe,,,,,,,,,,,,,,,,wlan,,,,,,,,,,,,,,,,,,,,,,,,,,,,,,,,,,,,,,,,,,,,,,,,,,,,,POINT (-71.45447 42.43181),node,,,,,,,,,,12056.0,01754
0.0,-71.83851,False,42.340157,1339892713,"{""cuisine"":""chinese""}",582158678,4,,,,,,,,,,Cheoy Lee's,,,,,,,restaurant,,,,,,,,,,,,,,,,,,,,,,,,,,,,,,,,,,,,,,,,,,,,,,,,,,,,,,,,,,,,,,,,,,,,,POINT (-71.83851 42.340157),node,,,,,,,,,,12128.0,01520
0.0,-71.123436,False,42.391296,1726424163,"{""addr:state"":""MA"",""check_date"":""2024-09-15"",""check_date:opening_hours"":""2023-12-05"",""cuisine"":""japanese""}",582401860,9,Cambridge,,,2088,,02140,,Massachusetts Avenue,,Wasabi at Porter,"Fr,Sa 11:30-23:00; Tu-Th,Su 11:30-22:00",,+1 617 945 5001,,,,restaurant,,,,,,,,,,,,,,,,,,,,,,,,,,,,,,,,,,,,,,,,,,,,,,,,,,,,,,,,,,,,,,,,,,,,,POINT (-71.123436 42.391296),node,,,,,,,,,,2869.0,02140
0.0,-71.10025,False,42.362103,1698496693,"{""check_date"":""2023-10-28""}",582805044,5,,,,20,,,,Sidney Street,,Sydney's Grille,,,,,,,restaurant,,,,,,,,,,,,,,,,,,,,,,,,,,,,,,,,,,,,,,,,,,,,,,,,,,,,,,,,,,,,,,,,,,,,,POINT (-71.10025 42.362103),node,,,,,,,,,,12754.0,02139
0.0,-71.350235,False,42.46004,1513683440,,587969535,2,,,,,,,,,,Main Street Market,,,,,,,cafe,,,,,,,,,,,,,,,,,,,,,,,,,,,,,,,,,,,,,,,,,,,,,,,,,,,,,,,,,,,,,,,,,,,,,POINT (-71.350235 42.46004),node,,,,,,,,,,12550.0,01742
0.0,-71.3494,False,42.46176,1582657233,,587969569,2,,,,,,,,,,Merchant's Row,,,,,,,restaurant,,,,,,,,,,,,,,,,,,,,,,,,,,,,,,,,,,,,,,,,,,,,,,,,,,,,,,,,,,,,,,,,,,,,,POINT (-71.3494 42.46176),node,,,,,,,,,,12550.0,01742
0.0,-71.35588,False,42.455723,1718847764,"{""addr:state"":""MA"",""branch"":""Sudbury Road & Thoreau"",""brand"":""Starbucks"",""brand:wikidata"":""Q37158"",""cuisine"":""coffee_shop"",""official_name"":""Starbucks Coffee"",""takeaway"":""yes""}",591089266,8,Concord,,,159,,01742,,Sudbury Road,,Starbucks,,,+1 978-287-0183,11750,,https://www.starbucks.com/store-locator/store/11750/sudbury-rd-thoreau-159-sudbury-road-concord-ma-017423429-us,cafe,,,,,,,,,,,,,,,,,,,,,,,,,,,,,,,,,,,,,,,,,,,,,,,,,,,,,,,,,,,,,,,,,,,,,POINT (-71.35588 42.455723),node,,,,,,,,,,12550.0,01742
0.0,-71.35631,False,42.456314,1715212301,"{""addr:state"":""MA"",""alt_name"":""Dunkin' Donuts"",""brand"":""Dunkin'"",""brand:wikidata"":""Q847743"",""contact:website"":""https://locations.dunkindonuts.com/en/ma/concord/117-thoreau-street/336449"",""cuisine"":""donut;coffee_shop"",""diet:vegan"":""no"",""diet:vegetarian"":""yes"",""drive_through"":""no"",""takeaway"":""yes"",""wheelchair"":""no""}",591089271,10,Concord,,,117,,01742,,Thoreau Street,,Dunkin',Mo-Fr 05:00-20:00; Sa 06:00-20:00; Su 06:00-19:00,,+1-978-371-0949,336449,,https://locations.dunkindonuts.com/en/ma/concord/117-thoreau-street/336449,fast_food,,,,,,,,,,,,,,,,,,,,,,,,,,,,,,,,,,,,,,,,,,,,,,,,,,,,,,,,,,,,,,,,,,,,,POINT (-71.35631 42.456314),node,,,,,,,,,,12550.0,01742
0.0,-71.35759,False,42.457127,1445967098,,591089275,2,,,,,,,,,,New London Style Pizza,,,,,,,restaurant,,,,,,,,,,,,,,,,,,,,,,,,,,,,,,,,,,,,,,,,,,,,,,,,,,,,,,,,,,,,,,,,,,,,,POINT (-71.35759 42.457127),node,,,,,,,,,,12550.0,01742
0.0,-71.351135,False,42.45957,1491782661,,591089297,2,,,,,,,,,,Sally Ann Food Shop,,,,,,,cafe,,,,,,,,,,,,,,,,,,,,,,,,,,,,,,,,,,,,,,,,,,,,,,,,,,,,,,,,,,,,,,,,,,,,,POINT (-71.351135 42.45957),node,,,,,,,,,,12550.0,01742
0.0,-71.349525,False,42.459965,1492704837,,591089301,2,,,,17,,,,Main Street,,Helen's,,,,,,,restaurant,,,,,,,,,,,,,,,,,,,,,,,,,,,,,,,,,,,,,,,,,,,,,,,,,,,,,,,,,,,,,,,,,,,,,POINT (-71.349525 42.459965),node,,,,,,,,,,12550.0,01742
0.0,-71.35833,False,42.457092,1736111289,"{""indoor_seating"":""yes"",""outdoor_seating"":""yes""}",591089307,4,,,,,,,,,,Sorrento's Pizza,,,,,,,restaurant,,,,,,,,,,,,,,,,,,,,,,,,,,,,,,,,,,,,,,,,,,,,,,,,,,,,,,,,,,,,,,,,,,,,,POINT (-71.35833 42.457092),node,,,,,,,,,,12550.0,01742
0.0,-71.39526,False,42.457222,1572722805,"{""wheelchair"":""limited""}",591089359,4,,,,,,,,,,Walden Italian Kitchen,,,,,,,fast_food,,,,,,,,,,,,,,,,,,,,,,,,,,,,,,,,,,,,,,,,,,,,,,,,,,,,,,,,,,,,,,,,,,,,,POINT (-71.39526 42.457222),node,,,,,,,,,,12550.0,01742
0.0,-71.395454,False,42.45734,1572722861,"{""wheelchair"":""limited""}",591089365,3,,,,,,,,,,Debra's Natural Gourmet,,,,,,,,,,,,,,,,,,,,,,,,,,,,,,,,,,,,,,,,,,,,,,,,,,,,,,,,,,,,,supermarket,,,,,,,,,,,,,,,POINT (-71.395454 42.45734),node,,,,,,,,,,12550.0,01742
0.0,-71.15826,False,42.39514,1485207213,,594000416,4,,,,,,,,,,The Loading Dock,Su 08:00-14:00; Mo-Sa 06:00-22:00,,,,,,cafe,,,,,,,,,,,,,,,,,,,,,,,,,,,,,,,,,,,,,,,,,,,,,,,,,,,,,,,,,,,,,,,,,,,,,POINT (-71.15826 42.39514),node,,,,,,,,,,2683.0,02478
0.0,-70.94449,False,42.19938,1716119876,"{""addr:state"":""MA"",""brand"":""Subway"",""brand:wikidata"":""Q244457"",""cuisine"":""sandwich"",""takeaway"":""yes""}",596382315,5,Weymouth,,,740,,02188,,Middle Street,,Subway,Mo-Sa 09:00-21:00; Su 09:30-20:00,,+1 781-335-3073,,,https://restaurants.subway.com/united-states/ma/weymouth/740-middle-st,fast_food,,,,,,,,,,,,,,,,,,,,,,,,,,,,,,,,,,,,,,,,,,,,,,,,,,,,,,,,,,,,,,,,,,,,,POINT (-70.94449 42.19938),node,,,,,,,,,,12802.0,02188
0.0,-72.555534,False,42.353107,1727954697,"{""addr:state"":""MA"",""branch"":""Hadley"",""brand"":""Whole Foods Market"",""brand:wikidata"":""Q1809448"",""check_date"":""2024-10-03"",""check_date:opening_hours"":""2024-10-03""}",599362166,8,Hadley,,,327,,01035,,Russell Street,,Whole Foods Market,Mo-Su 08:00-21:00,,+1 413-586-9932,hadley,,https://www.wholefoodsmarket.com/stores/hadley,,,,,,,,,,,,,,,,,,,,,,,,,,,,,,,,,,,,,,,,,,,,,,,,,,,,,,,supermarket,,,,,,,,,,,,,,,POINT (-72.555534 42.353107),node,,,,,,,,,,2313.0,01035
0.0,-72.55867,False,42.32759,1261777473,,599363459,1,,,,,,,,,,Raw Milk,,,,,,,,,,,,,,,,,,,,,,,,,,,,,,,,,,,,,,,,,,,,,,,,,,,,,,,,,,,,,farm,,,,,,,,,,,,,,,POINT (-72.55867 42.32759),node,,,,,,,,,,2313.0,01035
0.0,-70.93665,False,42.217716,1398286149,,600101867,4,,,,176,,,,Middle Street,,Gio's Roast Beef & Pizza,,,,,,,restaurant,,,,,,,,,,,,,,,,,,,,,,,,,survey,,,,,,,,,,,,,,,,,,,,,,,,,,,,,,,,,,,,,,,,,,,,POINT (-70.93665 42.217716),node,,,,,,,,,,2969.0,02189
0.0,-70.94393,False,42.229107,1261940692,"{""cuisine"":""chinese""}",600101923,1,,,,,,,,,,Jade Chef,,,,,,,fast_food,,,,,,,,,,,,,,,,,,,,,,,,,survey,,,,,,,,,,,,,,,,,,,,,,,,,,,,,,,,,,,,,,,,,,,,POINT (-70.94393 42.229107),node,,,,,,,,,,2969.0,02189
0.0,-70.943985,False,42.229195,1262728968,"{""cuisine"":""pizza""}",600101926,2,,,,,,,,,,Express Pizza,,,,,,,fast_food,,,,,,,,,,,,,,,,,,,,,,,,,survey,,,,,,,,,,,,,,,,,,,,,,,,,,,,,,,,,,,,,,,,,,,,POINT (-70.943985 42.229195),node,,,,,,,,,,2969.0,02189
0.0,-70.94341,False,42.20122,1262137388,"{""cuisine"":""thai""}",601266425,1,,,,,,,,,,Sweet Lemons,,,,,,,restaurant,,,,,,,,,,,,,,,,,,,,,,,,,survey,,,,,,,,,,,,,,,,,,,,,,,,,,,,,,,,,,,,,,,,,,,,POINT (-70.94341 42.20122),node,,,,,,,,,,2969.0,02189
0.0,-70.9433,False,42.201195,1715210071,"{""addr:state"":""MA"",""brand"":""Domino's"",""brand:wikidata"":""Q839466"",""cuisine"":""pizza"",""short_name"":""Domino's"",""takeaway"":""yes""}",601266426,5,Weymouth,,,824,,02189,,Washington Street,,Domino's,Mo-Th 10:30-24:00; Fr-Sa 10:30-01:00; Su 10:30-24:00,,+1 781-682-9000,3997,,https://pizza.dominos.com/massachusetts/weymouth/824-washington-street,fast_food,,,,,,,,,,,,,,,,,,,,,,,,,survey,,,,,,,,,,,,,,,,,,,,,,,,,,,,,,,,,,,,,,,,,,,,POINT (-70.9433 42.201195),node,,,,,,,,,,2969.0,02189
0.0,-70.943115,False,42.201084,1262137388,"{""cuisine"":""italian""}",601266428,1,,,,,,,,,,Pacini's Eatery,,,,,,,restaurant,,,,,,,,,,,,,,,,,,,,,,,,,survey,,,,,,,,,,,,,,,,,,,,,,,,,,,,,,,,,,,,,,,,,,,,POINT (-70.943115 42.201084),node,,,,,,,,,,2969.0,02189
0.0,-70.94393,False,42.201794,1432322204,"{""cuisine"":""pizza""}",601266430,3,,,,,,,,,,Athen's Pizza,,,,,,,fast_food,,,,,,,,,,,,,,,,,,,,,,,,,survey,,,,,,,,,,,,,,,,,,,,,,,,,,,,,,,,,,,,,,,,,,,,POINT (-70.94393 42.201794),node,,,,,,,,,,2969.0,02189
0.0,-70.94366,False,42.202145,1715212301,"{""addr:state"":""MA"",""alt_name"":""Dunkin' Donuts"",""brand"":""Dunkin'"",""brand:wikidata"":""Q847743"",""contact:website"":""https://locations.dunkindonuts.com/en/ma/weymouth/634-middle-st/331247"",""cuisine"":""donut;coffee_shop"",""drive_through"":""no"",""takeaway"":""yes""}",601266434,9,Weymouth,,,634,,02189,,Middle Street,,Dunkin',05:00-19:00,,+1 781-335-8456,331247,,https://locations.dunkindonuts.com/en/ma/weymouth/634-middle-st/331247,fast_food,,,,,,,,,,,,,,,,,,,,,,,,,survey,,,,,,,,,,,,,,,,,,,,,,,,,,,,,,,,,,,,,,,,,,,,POINT (-70.94366 42.202145),node,,,,,,,,,,2969.0,02189
0.0,-71.865486,False,42.11707,1622471232,"{""cuisine"":""pizza;sandwich;pasta""}",609851494,3,,,,,,,,,,New England Pizzeria,,,+15089871999,,,https://www.newenglandpizzaoxford.com/,restaurant,,,,,,,,,,,,,,,,,,,,,,,,,,,,,,,,,,,,,,,,,,,,,,,,,,,,,,,,,,,,,,,,,,,,,POINT (-71.865486 42.11707),node,,,,,,,,,,2865.0,01540
0.0,-72.60501,False,42.27282,1263775423,,616050089,1,,,,,,,,,,Delaney House,,,,,,,restaurant,,,,,,,,,,,,,,,,,,,,,,,,,,,,,,,,,,,,,,,,,,,,,,,,,,,,,,,,,,,,,,,,,,,,,POINT (-72.60501 42.27282),node,,,,,,,,,,2596.0,01040
0.0,-72.631805,False,42.318302,1728864083,"{""addr:state"":""MA"",""contact:facebook"":""https://www.facebook.com/haymarketcafe"",""wheelchair"":""limited""}",616054498,6,Northampton,,,185,,01060,,Main Street,,Haymarket,"Mo-Fr 07:00-20:00; Sa,Su 08:00-20:00",,+1 413-586-9969,,,https://www.haymarketcafe.com/,cafe,,,,,,,,,,,,,,,,,,,,,,,,,,,,,,,,,,,,,,,,,,,,,,,,,,,,,,,,,,,,,,,,,,,,,POINT (-72.631805 42.318302),node,,,,,,,,,,2879.0,01060
0.0,-72.97994,False,42.277603,1601560602,"{""addr:state"":""MA"",""addr:unit"":""1"",""cuisine"":""coffee_shop;american"",""internet_access:fee"":""no"",""internet_access:ssid"":""Carm's VVisitor Center"",""outdoor_seating"":""yes""}",616264907,4,Chester,,,241,,01011,,Route 20,,Carm's,Mo-Su 06:30-15:30,,,,,,cafe,,,,,,,,,,,,,,,,wlan,,,,,,,,,,,,,,,,,,,,,,,,,,,,,,,,,,,,,,,,,,,,,,,,,,,,,POINT (-72.97994 42.277603),node,,,,,,,,,,2312.0,01011
0.0,-70.66814,False,42.616524,1716119876,"{""addr:state"":""MA"",""addr:unit"":""1"",""brand"":""Subway"",""brand:wikidata"":""Q244457"",""cuisine"":""sandwich"",""takeaway"":""yes""}",616942416,9,Gloucester,,,25,,01930,,Railroad Avenue,,Subway,09:00-21:00,,+1 978-281-1160,,,https://restaurants.subway.com/united-states/ma/gloucester/25-railroad-avenue,fast_food,,,,,,,,,,,,,,,,,,,,,,,,,,,,,,,,,,,,,,,,,,,,,,,,,,,,,,,,,,,,,,,,,,,,,POINT (-70.66814 42.616524),node,,,,,,,,,,2584.0,01930
0.0,-71.10492,False,42.37725,1694286785,"{""air_conditioning"":""yes"",""cuisine"":""thai"",""diet:vegan"":""yes"",""diet:vegetarian"":""yes"",""payment:credit_cards"":""yes"",""payment:debit_cards"":""yes"",""smoking"":""no""}",616945448,8,,,,,,,,,,Thai Hut,Mo-Sa 11:30-22:00,,,,,,restaurant,,,,,,,,,,,,,,,,,,,,,,,,,,,,,,,,,,,,,,,,,,,,,,,,,,,,,,,,,,,,,,,,,,,,,POINT (-71.10492 42.37725),node,,,,,,,,,,2301.0,02143
0.0,-71.10672,False,42.378357,1292192108,,617249818,3,,,,,,,,,,Dali,,,,,,,restaurant,,,,,,,,,,,,,,,,,,,,,,,,,,,,,,,,,,,,,,,,,,,,,,,,,,,,,,,,,,,,,,,,,,,,,POINT (-71.10672 42.378357),node,,,,,,,,,,2301.0,02143
0.0,-71.10659,False,42.378075,1601467152,"{""addr:state"":""MA"",""cuisine"":""indian""}",617249820,5,Somerville,,,414,,02143,,Washington Street,,Kebab Factory,,,,,,,restaurant,,,,,,,,,,,,,,,,,,,,,,,,,,,,,,,,,,,,,,,,,,,,,,,,,,,,,,,,,,,,,,,,,,,,,POINT (-71.10659 42.378075),node,,,,,,,,,,2301.0,02143
0.0,-70.66496,False,42.61561,1264089018,,617721791,1,,,,,,,,,,Mike's Pizza,,,,,,,fast_food,,,,,,,,,,,,,,,,,,,,,,,,,,,,,,,,,,,,,,,,,,,,,,,,,,,,,,,,,,,,,,,,,,,,,POINT (-70.66496 42.61561),node,,,,,,,,,,2584.0,01930
0.0,-71.45875,False,42.43104,1492102280,"{""addr:state"":""MA"",""cuisine"":""indian"",""level"":""0""}",618871208,4,Maynard,,,4,,01754,,Railroad Street,,Cafe of India,,,,,,,restaurant,,,,,,,,,,,,,,,,,,,,,,,,,,,,,,,,,,,,,,,,,,,,,,,,,,,,,,,,,,,,,,,,,,,,,POINT (-71.45875 42.43104),node,,,,,,,,,,12056.0,01754
0.0,-71.45006,False,42.432568,1715255911,"{""addr:state"":""MA"",""brand"":""McDonald's"",""brand:website"":""https://www.mcdonalds.com/"",""brand:wikidata"":""Q38076"",""cuisine"":""burger"",""drive_through"":""yes"",""smoking"":""no"",""takeaway"":""yes""}",618871213,10,Maynard,,,4,,01754,,Main Street,,McDonald's,06:00-23:00,,+1 978-897-8995,,,https://www.mcdonalds.com/us/en-us/location/4857.html,fast_food,,,,,,,,,,,,,,,,wlan,,,,,,,,,,,,,,,,,,,,,,,,,,,,,,,,,,,,,,,,,,,,,,,,,,,,,POINT (-71.45006 42.432568),node,,,,,,,,,,12056.0,01754
0.0,-70.943726,False,42.2102,1700942062,,619425795,3,,,,,,,,,,Windy City Eats,,,+1 781-335-0023,,,,fast_food,,,,,,,,,,,,,,,,,,,,,,,,,,,,,,,,,,,,,,,,,,,,,,,,,,,,,,,,,,,,,,,,,,,,,POINT (-70.943726 42.2102),node,,,,,,,,,,2969.0,02189
0.0,-71.721725,False,42.423935,1264464457,,620166098,1,,,,,,,,,,Meadowbrook Orchards,,,,,,,restaurant,,,,,,,,,,,,,,,,,,,,,,,,,,,,,,,,,,,,,,,,,,,,,,,,,,,,,,,,,,,,,,,,,,,,,POINT (-71.721725 42.423935),node,,,,,,,,,,12357.0,01564
0.0,-71.45428,False,42.43185,1523485304,"{""cuisine"":""thai"",""fixme"":""opening hours unclear; needs survey""}",623509279,4,,,,,,,,,,Siam Village,Mo-Fr,,,,,,restaurant,,,,,,,,,,,,,,,,,,,,,,,,,,,,,,,,,,,,,,,,,,,,,,,,,,,,,,,,,,,,,,,,,,,,,POINT (-71.45428 42.43185),node,,,,,,,,,,12056.0,01754
0.0,-71.264175,False,42.554333,1265054180,,625992403,1,,,,,,,,,,Sichuan Gourmet,,,,,,,restaurant,,,,,,,,,,,,,,,,,,,,,,,,,,,,,,,,,,,,,,,,,,,,,,,,,,,,,,,,,,,,,,,,,,,,,POINT (-71.264175 42.554333),node,,,,,,,,,,2488.0,01821
0.0,-71.10459,False,42.3654,1718736768,"{""addr:state"":""MA"",""check_date"":""2023-05-11"",""cuisine"":""mediterranean;falafel"",""takeaway"":""yes""}",628907786,7,Cambridge,,,25,,02139,Central Square,,,Aleppo Palace,,,+1-617-945-7449,,,http://aleppopalace.com/,restaurant,,,,,,,,,,,,,,,,,,,,,,,,,,,,,,,,,,,,,,,,,,,,,,,,,,,,,,,,,,,,,,,,,,,,,POINT (-71.10459 42.3654),node,,,,,,,,,,12754.0,02139
0.0,-71.15067,False,42.415028,1706557345,"{""addr:state"":""MA"",""cuisine"":""korean"",""old_name"":""Manna Sushi"",""takeaway"":""yes""}",633118822,6,Arlington,,,9,,,,Medford Street,,WooRi Korean Fusion Grill,"Mo-Fr 11:00-15:00,16:30-21:30; Sa,Su 11:00-21:30",,,,,,restaurant,,,,,,,,,,,,,,,,,,,,,,,,,,,,,,,,,,,,,,,,,,,,,,,,,,,,,,,,,,,,,,,,,,,,,POINT (-71.15067 42.415028),node,,,,,,,,,,2972.0,02474
0.0,-71.23506,False,42.436134,1715212301,"{""addr:state"":""MA"",""alt_name"":""Dunkin' Donuts"",""brand"":""Dunkin'"",""brand:wikidata"":""Q847743"",""contact:website"":""https://locations.dunkindonuts.com/en/ma/lexington/373-waltham-st/301304"",""cuisine"":""donut;coffee_shop"",""drive_through"":""no"",""takeaway"":""yes""}",633268855,6,Lexington,,,373,,02421,,Waltham Street,,Dunkin',Mo-Su 06:00-19:00,,+1-781-538-5158,301304,,https://locations.dunkindonuts.com/en/ma/lexington/373-waltham-st/301304,fast_food,,,,,,,,,,,,,,,,,,,,,,,,,,,,,,,,,,,,,,,,,,,,,,,,,,,,,,,,,,,,,,,,,,,,,POINT (-71.23506 42.436134),node,,,,,,,,,,12591.0,02421
0.0,-71.03897,False,42.34863,1407653251,,634061898,2,,,,,,,,,,LTK: The Legal Test Kitchen,,,,,,,restaurant,,,,,,,,,,,,,,,,,,,,,,,,,,,,,,,,,,,,,,,,,,,,,,,,,,,,,,,,,,,,,,,,,,,,,POINT (-71.03897 42.34863),node,,,,,,,,,,12825.0,02210
0.0,-71.515114,False,42.428703,1711017764,,634770122,4,,,,,,,,,,The Grille,,,,,,,restaurant,,,,,,,,,,,,,,,,,,,,,,,,,,,,,,,,,,,,,,,,,,,,,,,,,,,,,,,,,,,,,,,,,,,,,POINT (-71.515114 42.428703),node,,,,,,,,,,12129.0,01775
0.0,-71.51284,False,42.42537,1708538487,,634770773,3,,,,,,,,,,Small Farm,Jun-Aug,,,,,,,,,,,,,,,,,,,,,,,,,,,,,,,,,,,,,,,,,,,,,,,,,,,,,,,,,,,,farm,,,,,,,,,,,,,,,POINT (-71.51284 42.42537),node,,,,,,,,,,12129.0,01775
0.0,-71.262474,False,42.484177,1727945667,"{""addr:state"":""MA"",""brand"":""Stop & Shop"",""brand:wikidata"":""Q3658429"",""check_date"":""2024-10-03"",""check_date:opening_hours"":""2024-10-03"",""payment:credit_cards"":""yes"",""payment:debit_cards"":""yes"",""wheelchair"":""yes""}",638064759,11,Bedford,,,337,,01730,,The Great Road,,Stop & Shop,Mo-Sa 07:00-22:00; Su 07:00-21:00,,+1 781-271-9400,0088,,https://stores.stopandshop.com/ma/bedford/337-great-road,,,,,,,,,,,,,,,,,,,,,,,,,,,,,,,,,,,,,,,,,,,,,,,,,,,,,,,supermarket,,,,,,,,,,,,,,,POINT (-71.262474 42.484177),node,,,,,,,,,,12549.0,01730
0.0,-71.49909,False,42.15103,1703558035,,638781309,4,,,,198,,,,E. Main Street,,Bertie's Creative Creamery,"We-Fr 14:00-20:00; Sa, Su 12:00-20:00",,+1 508-482-0219,,,https://bertiescreativecreamery.com,restaurant,,,,,,,,,,,,,,,,,,,,,,,,,,,,,,,,,,,,,,,,,,,,,,,,,,,,,,,,,,,,,,,,,,,,,POINT (-71.49909 42.15103),node,,,,,,,,,,2771.0,01757
0.0,-71.41456,False,42.482494,1707444727,"{""addr:state"":""MA"",""branch"":""Acton"",""brand"":""Trader Joe's"",""brand:wikidata"":""Q688825""}",639236177,7,Acton,,,145,,01720,,Great Road,,Trader Joe's,Mo-Su 08:00-21:00,,+1 978-266-8908,511,,https://locations.traderjoes.com/ma/acton/511/,,,,,,,,,,,,,,,,,,,,,,,,,,,,,,,,,,,,,,,,,,,,,,,,,,,,,,,supermarket,,,,,,,,,,,,,,,POINT (-71.41456 42.482494),node,,,,,,,,,,12546.0,01720
0.0,-71.414154,False,42.482582,1686159991,,639236209,4,,,,,,,,,,KJ's Caffe,,,,,,,cafe,,,,,,,,,,,,,,,,,,,,,,,,,,,,,,,,,,,,,,,,,,,,,,,,,,,,,,,,,,,,,,,,,,,,,POINT (-71.414154 42.482582),node,,,,,,,,,,12546.0,01720
0.0,-71.22836,False,42.447826,1734019756,"{""addr:state"":""MA"",""check_date"":""2024-12-11""}",648450400,2,Lexington,,,1806,,02420,,Massachusetts Avenue,,Avenue Deli,Mo-Fr 09:30-17:00; Sa 09:30-16:00; Su off,,+1 781-862-1806,,,https://www.1806avenuedeli.com/,restaurant,,,,,,,,,,,,,,,,,,,,,,,,,,,,,,,,,,,,,,,,,,,,,,,,,,,,,,,,,,,,,,,,,,,,,POINT (-71.22836 42.447826),node,,,,,,,,,,12591.0,02421
0.0,-71.02732,False,42.253593,1715212301,"{""addr:state"":""MA"",""alt_name"":""Dunkin' Donuts"",""brand"":""Dunkin'"",""brand:wikidata"":""Q847743"",""contact:website"":""https://locations.dunkindonuts.com/en/ma/quincy/550-adams-st/302693"",""cuisine"":""donut;coffee_shop"",""drive_through"":""no"",""takeaway"":""yes""}",652791195,9,Quincy,,,550,,02169,,Adams Street,,Dunkin',Mo-Fr 05:00-20:00; Sa-Su 06:00-20:00,,+1-617-773-0795,302693,,https://locations.dunkindonuts.com/en/ma/quincy/550-adams-st/302693,fast_food,,,,,,,,,,,,,,,,,,,,,,,,,,,,,,,,,,,,,,,,,,,,,,,,,,,,,,,,,,,,,,,,,,,,,POINT (-71.02732 42.253593),node,,,,,,,,,,12704.0,02169
0.0,-71.02746,False,42.253555,1686618158,"{""cuisine"":""pizza""}",652791201,3,,,,,,,,,,Unchained Pizza,,,,,,,fast_food,,,,,,,,,,,,,,,,,,,,,,,,,,,,,,,,,,,,,,,,,,,,,,,,,,,,,,,,,,,,,,,,,,,,,POINT (-71.02746 42.253555),node,,,,,,,,,,12704.0,02169
0.0,-71.037,False,42.251812,1267114280,,653457849,1,,,,,,,,,,Common Market,,,,,,,restaurant,,,,,,,,,,,,,,,,,,,,,,,,,,,,,,,,,,,,,,,,,,,,,,,,,,,,,,,,,,,,,,,,,,,,,POINT (-71.037 42.251812),node,,,,,,,,,,12704.0,02169
0.0,-71.036285,False,42.251587,1267114280,,653457860,1,,,,,,,,,,Village Food,,,,,,,fast_food,,,,,,,,,,,,,,,,,,,,,,,,,,,,,,,,,,,,,,,,,,,,,,,,,,,,,,,,,,,,,,,,,,,,,POINT (-71.036285 42.251587),node,,,,,,,,,,12704.0,02169
0.0,-71.081436,False,42.341095,1668119550,"{""addr:state"":""MA"",""air_conditioning"":""yes"",""cuisine"":""coffee_shop;sandwich"",""internet_access:fee"":""customers"",""internet_access:ssid"":""Render Guest"",""outdoor_seating"":""yes""}",665496462,5,Boston,,,563,,02118,,Columbus Avenue,,Render Coffee,Mo-Fr 07:00-17:00; Sa-Su 08:00-17:00,,,,,https://www.rendercoffeebar.com/,cafe,,,,,,,,,,,,,,,,wlan,,,,,,,,,,,,,,,,,,,,,,,,,,,,,,,,,,,,,,,,,,,,,,,,,,,,,POINT (-71.081436 42.341095),node,,,,,,,,,,12651.0,02118
0.0,-71.43281,False,42.523212,1514781975,"{""cuisine"":""american""}",676398196,4,Acton,,,405,,01720,,Nagog Park,,Crossroads Cafe,,,+1 978 263 9733,,,https://crossroadscafeacton.com/,restaurant,,,,,,,,,,,,,,,,,,,,,,,,,,,,,,,,,,,,,,,,,,,,,,,,,,,,,,,,,,,,,,,,,,,,,POINT (-71.43281 42.523212),node,,,,,,,,,,12479.0,01718
0.0,-70.6641,False,42.615578,1271390640,"{""cuisine"":""chinese""}",698251897,1,,,,,,,,,,Ocean Garden,,,,,,,fast_food,,,,,,,,,,,,,,,,,,,,,,,,,,,,,,,,,,,,,,,,,,,,,,,,,,,,,,,,,,,,,,,,,,,,,POINT (-70.6641 42.615578),node,,,,,,,,,,2584.0,01930
0.0,-70.667496,False,42.616287,1271390641,"{""cuisine"":""sandwich""}",698251906,1,,,,,,,,,,,,,,,,,restaurant,,,,,,,,,,,,,,,,,,,,,,,,,,,,,,,,,,,,,,,,,,,,,,,,,,,,,,,,,,,,,,,,,,,,,POINT (-70.667496 42.616287),node,,,,,,,,,,2584.0,01930
0.0,-71.80712,False,42.27097,1699337834,"{""cuisine"":""breakfast;tea;cake;coffee_shop"",""description"":""Independent coffee shop""}",701642097,5,,,,,,01609,,Highland Street,,Bean Counter,"Mo-Fr 07:30-19:00; Sa,Su 08:00-19:00",,,,,https://www.beancounterbakery.com/,cafe,,,,,,,,,,,,,,,,wlan,,,,,,,,,,,,,,,,,,,,,,,,,,,,,,,,,,,,,,,,,,,,,,,,,,,,,POINT (-71.80712 42.27097),node,,,,,,,,,,12399.0,01609
0.0,-71.12378,False,42.343826,1731287877,"{""addr:state"":""MA"",""outdoor_seating"":""no""}",703046981,4,Brookline,,,335,,02446,,Harvard Street,,Zaftigs Delicatessen,"Su-Th 08:00-21:00; Fr,Sa 08:00-22:00",,+1-617-975-0075,,,http://www.zaftigs.com/,restaurant,,,,,,,,,,,,,,,,,,,,,,,,,,,,,,,,,,,,,,,,,,,,,,,,,,,,,,,,,,,,,,,,,,,,,POINT (-71.12378 42.343826),node,,,,,,,,,,12678.0,02446
0.0,-71.12301,False,42.343437,1699805059,"{""contact:instagram"":""eatbottega"",""cuisine"":""italian""}",703047177,5,,,,313B,,02446,,Harvard Street,,Bottega Fiorentina,Mo-Su 11:00-21:00,,6172322661,,,https://eatbottega.com/,restaurant,,,,,,,,,,,,,,,,,,,,,,,,,,,,,,,,,,,,,,,,,,,,,,,,,,,,,,,,,,,,,,,,,,,,,POINT (-71.12301 42.343437),node,,,,,,,,,,12678.0,02446
0.0,-72.62916,False,42.320107,1625916040,"{""addr:state"":""MA"",""cuisine"":""mexican"",""wheelchair"":""limited""}",705804064,6,Northampton,,,31,,01060,,Main Street,,La Veracruzana,Mo-Su 11:00-22:00,,+1 (413) 586-7181,,,https://www.laveracruzana.com,restaurant,,,,,,,,,,,,,,,,,,,,,,,,,,,,,,,,,,,,,,,,,,,,,,,,,,,,,,,,,,,,,,,,,,,,,POINT (-72.62916 42.320107),node,,,,,,,,,,2879.0,01060
0.0,-72.630844,False,42.317924,1634064769,"{""addr:state"":""MA"",""level"":""1"",""takeaway"":""yes""}",705814074,4,Northampton,,,150,,01060,,Main Street,,Paul & Elizabeth's,"Mo-Th 11:30-21:00; Fr,Sa 11:30-21:45; Su 11:00-21:00",,+1 (413) 584-4832,,,https://www.paulandelizabeths.com,restaurant,,,,,,,,,,,,,,,,,,,,,,,,,,,,,,,,,,,,,,,,,,,,,,,,,,,,,,,,,,,,,,,,,,,,,POINT (-72.630844 42.317924),node,,,,,,,,,,2879.0,01060
0.0,-72.62916,False,42.319683,1625916040,"{""cuisine"":""mediterranean""}",705814078,5,,,,,,,,,,Amanouz Caf,,,,,,http://amanouz.com/,restaurant,,,,,,,,,,,,,,,,,,,,,,,,,,,,,,,,,,,,,,,,,,,,,,,,,,,,,,,,,,,,,,,,,,,,,POINT (-72.62916 42.319683),node,,,,,,,,,,2879.0,01060
0.0,-72.62853,False,42.320217,1699102404,"{""cuisine"":""sushi""}",705814080,3,,,,,,,,,,Moshi Moshi,,,,,,https://moshimoshisam.com/,restaurant,,,,,,,,,,,,,,,,,,,,,,,,,,,,,,,,,,,,,,,,,,,,,,,,,,,,,,,,,,,,,,,,,,,,,POINT (-72.62853 42.320217),node,,,,,,,,,,2879.0,01060
0.0,-71.71404,False,42.296474,1455711897,,739860752,3,,,,,,,,,,Amici's Trattoria,,,,,,,restaurant,,,,,,,,,,,,,,,,,,,,,,,,,,,,,,,,,,,,,,,,,,,,,,,,,,,,,,,,,,,,,,,,,,,,,POINT (-71.71404 42.296474),node,,,,,,,,,,12219.0,01545
0.0,-71.71433,False,42.296455,1455711897,,739861173,3,,,,,,,,,,Center Cafe,,,,,,,cafe,,,,,,,,,,,,,,,,,,,,,,,,,,,,,,,,,,,,,,,,,,,,,,,,,,,,,,,,,,,,,,,,,,,,,POINT (-71.71433 42.296455),node,,,,,,,,,,12219.0,01545
0.0,-71.724174,False,42.329124,1715212301,"{""addr:state"":""MA"",""alt_name"":""Dunkin' Donuts"",""brand"":""Dunkin'"",""brand:wikidata"":""Q847743"",""contact:website"":""https://locations.dunkindonuts.com/en/ma/boylston/270-shrewsbury-st/rte-140/330282"",""cuisine"":""donut;coffee_shop"",""fixme:atp"":""Check if still exists. No corresponding ATP object."",""takeaway"":""yes""}",739866476,8,Boylston,,,270,,01505,,Shrewsbury Street,,Dunkin',Mo 05:00-19:00; Tu-Sa 04:00-19:00; Su 05:00-19:00,,+1-508-869-2313,,,,fast_food,,,,,,,,,,,,,,,,,,,,,,,,,,,,,,,,,,,,,,,,,,,,,,,,,,,,,,,,,,,,,,,,,,,,,POINT (-71.724174 42.329124),node,,,,,,,,,,12079.0,01505
0.0,-71.724335,False,42.329784,1686618158,"{""cuisine"":""chinese""}",739868284,2,,,,,,,,,,Dragon 88 Restaurant,,,,,,,restaurant,,,,,,,,,,,,,,,,,,,,,,,,,,,,,,,,,,,,,,,,,,,,,,,,,,,,,,,,,,,,,,,,,,,,,POINT (-71.724335 42.329784),node,,,,,,,,,,12079.0,01505
0.0,-71.73823,False,42.276062,1661999836,"{""brand"":""Hooters"",""brand:wikidata"":""Q1025921"",""cuisine"":""burger"",""wheelchair"":""yes""}",740259641,4,,,,,,,,,,Hooters,,,,,,,restaurant,,,,,,,,,,,,,,,,,,,,,,,,,,,,,,,,,,,,,,,,,,,,,,,,,,,,,,,,,,,,,,,,,,,,,POINT (-71.73823 42.276062),node,,,,,,,,,,12219.0,01545
0.0,-71.73758,False,42.277016,1274321393,,740259667,1,,,,,,,,,,Fred's Chinese Food,,,,,,,restaurant,,,,,,,,,,,,,,,,,,,,,,,,,,,,,,,,,,,,,,,,,,,,,,,,,,,,,,,,,,,,,,,,,,,,,POINT (-71.73758 42.277016),node,,,,,,,,,,12219.0,01545
0.0,-71.737,False,42.277287,1730391176,"{""cuisine"":""chinese""}",740260497,6,,,,380,,,,Maple Avenue,,Imperial Buffet,,,+1-508-890-8889,,,https://www.imperialbuffetus.com/,restaurant,,,,,,,,,,,,,,,,,,,,,,,,,,,,,,,,,,,,,,,,,,,,,,,,,,,,,,,,,,,,,,,,,,,,,POINT (-71.737 42.277287),node,,,,,,,,,,12219.0,01545
0.0,-71.74983,False,42.27538,1715207420,"{""addr:state"":""MA"",""brand"":""Chipotle"",""brand:wikidata"":""Q465751"",""cuisine"":""mexican"",""official_name"":""Chipotle Mexican Grill"",""takeaway"":""yes""}",740260650,6,Shrewsbury,,,97,,01545,,Boston Turnpike,,Chipotle,,,+1 508-752-1726,,,https://locations.chipotle.com/ma/shrewsbury/97-boston-turnpike,fast_food,,,,,,,,,,,,,,,,,,,,,,,,,,,,,,,,,,,,,,,,,,,,,,,,,,,,,,,,,,,,,,,,,,,,,POINT (-71.74983 42.27538),node,,,,,,,,,,12219.0,01545
0.0,-71.74987,False,42.27556,1732310113,"{""cuisine"":""indian""}",740260874,5,,,,,,,,,,Bollywood Grill,,,,,,,restaurant,,,,,,,,,,,,,,,,,,,,,,,,,,,,,,,,,,,,,,,,,,,,,,,,,,,,,,,,,,,,,,,,,,,,,POINT (-71.74987 42.27556),node,,,,,,,,,,12219.0,01545
0.0,-71.03385,False,42.256565,1566275247,,746741980,2,,,,,,,,,,Brick & Beam,,,,,,,restaurant,,,,,,,,,,,,,,,,,,,,,,,,,,,,,,,,,,,,,,,,,,,,,,,,,,,,,,,,,,,,,,,,,,,,,POINT (-71.03385 42.256565),node,,,,,,,,,,12704.0,02169
0.0,-71.03118,False,42.2558,1274643509,,746741995,1,,,,,,,,,,Dairy Freeze,,,,,,,fast_food,,,,,,,,,,,,,,,,,,,,,,,,,,,,,,,,,,,,,,,,,,,,,,,,,,,,,,,,,,,,,,,,,,,,,POINT (-71.03118 42.2558),node,,,,,,,,,,12704.0,02169
0.0,-71.03324,False,42.255733,1715691841,"{""addr:state"":""MA"",""brand"":""Burger King"",""brand:wikidata"":""Q177054"",""cuisine"":""burger"",""delivery"":""yes"",""drive_through"":""yes"",""takeaway"":""yes""}",746742001,4,Quincy,,,670,,02169-1339,,Adams Street,,Burger King,Mo-We 10:30-23:00; Th 10:30-22:00; Fr-Su 10:30-23:00,,+1 617-471-7294,137,,https://www.bk.com/store-locator/store/restaurant_90,fast_food,,,,,,,,,,,,,,,,wlan,,,,,,,,,,,,,,,,,,,,,,,,,,,,,,,,,,,,,,,,,,,,,,,,,,,,,POINT (-71.03324 42.255733),node,,,,,,,,,,12704.0,02169
0.0,-71.10632,False,42.383423,1653000053,"{""wheelchair"":""limited""}",746908622,3,,,,,,,,,,Wings Over Somerville,"Su-Th 11:00-24:00, Fr,Sa 11:00-02:00",,,,,,fast_food,,,,,,,,,,,,,,,,,,,,,,,,,,,,,,,,,,,,,,,,,,,,,,,,,,,,,,,,,,,,,,,,,,,,,POINT (-71.10632 42.383423),node,,,,,,,,,,2301.0,02143
0.0,-71.87436,False,42.544403,1715212301,"{""addr:state"":""MA"",""alt_name"":""Dunkin' Donuts"",""brand"":""Dunkin'"",""brand:wikidata"":""Q847743"",""contact:website"":""https://locations.dunkindonuts.com/en/ma/westminster/21-village-inn-rd/331160"",""cuisine"":""donut;coffee_shop"",""drive_through"":""yes"",""takeaway"":""yes""}",747885288,7,Westminster,,,21,,01473,,Village Inn Road,,Dunkin',Mo-Fr 04:30-21:00; Sa-Su 05:00-21:00,,+1-978-874-5314,331160,,https://locations.dunkindonuts.com/en/ma/westminster/21-village-inn-rd/331160,fast_food,,,,,,,,,,,,,,,,,,,,,,,,,,,,,,,,,,,,,,,,,,,,,,,,,,,,,,,,,,,,,,,,,,,,,POINT (-71.87436 42.544403),node,,,,,,,,,,12543.0,01473
0.0,-71.9426,False,42.60897,1724780070,"{""addr:state"":""MA"",""alt_name"":""Dunkin' Donuts"",""brand"":""Dunkin'"",""brand:wikidata"":""Q847743"",""contact:website"":""https://locations.dunkindonuts.com/en/ma/ashburnham/6-gardner-rd/340260"",""cuisine"":""donut;coffee_shop"",""drive_through"":""yes"",""takeaway"":""yes""}",747893623,8,Ashburnham,,,6,,01430,,Gardner Road,,Dunkin',Mo-Su 04:30-21:00,,+1-978-827-1115,340260,,https://locations.dunkindonuts.com/en/ma/ashburnham/6-gardner-rd/340260,fast_food,,,,,,,,,,,,,,,,,,,,,,,,,,,,,,,,,,,,,,,,,,,,,,,,,,,,,,,,,,,,,,,,,,,,,POINT (-71.9426 42.60897),node,,,,,,,,,,12302.0,01430
0.0,-70.49378,False,41.75881,1275657226,,764396208,1,,,,,,,,,,Paul's Bean and Bagel,,,,,,,cafe,,,,,,,,,,,,,,,,,,,,,,,,,,,,,,,,,,,,,,,,,,,,,,,,,,,,,,,,,,,,,,,,,,,,,POINT (-70.49378 41.75881),node,,,,,,,,,,12701.0,02563
0.0,-70.49542,False,41.758236,1690293935,,764396209,3,,,,,,,,,,Belfry Bistro,,,,,,,restaurant,,,,,,,,,,,,,,,,,,,,,,,,,,,,,,,,,,,,,,,,,,,,,,,,,,,,,,,,,,,,,,,,,,,,,POINT (-70.49542 41.758236),node,,,,,,,,,,12701.0,02563
0.0,-70.49516,False,41.758373,1329447530,,764396210,2,,,,,,,,,,The Painted Lady,,,,,,,restaurant,,,,,,,,,,,,,,,,,,,,,,,,,,,,,,,,,,,,,,,,,,,,,,,,,,,,,,,,,,,,,,,,,,,,,POINT (-70.49516 41.758373),node,,,,,,,,,,12701.0,02563
0.0,-70.49759,False,41.758392,1329447529,,764396220,2,,,,,,,,,,Daniel Webster,,,,,,,restaurant,,,,,,,,,,,,,,,,,,,,,,,,,,,,,,,,,,,,,,,,,,,,,,,,,,,,,,,,,,,,,,,,,,,,,POINT (-70.49759 41.758392),node,,,,,,,,,,12701.0,02563
0.0,-69.969406,False,41.686016,1686417505,"{""outdoor_seating"":""yes""}",764420714,3,,,,,,,,,,Del Mar,,,,,,,restaurant,,,,,,,,,,,,,,,,,,,,,,,,,,,,,,,,,,,,,,,,,,,,,,,,,,,,,,,,,,,,,,,,,,,,,POINT (-69.969406 41.686016),node,,,,,,,,,,2782.0,02633
0.0,-69.957,False,41.679398,1684607812,"{""addr:state"":""MA"",""cuisine"":""filipino"",""outdoor_seating"":""yes""}",764420749,3,Chatham,,,483,,,,Main Street,,Aplaya Kitchen and Tiki Bar,,,,,,,restaurant,,,,,,,,,,,,,,,,,,,,,,,,,,,,,,,,,,,,,,,,,,,,,,,,,,,,,,,,,,,,,,,,,,,,,POINT (-69.957 41.679398),node,,,,,,,,,,2782.0,02633
0.0,-69.953804,False,41.67897,1684607812,,764420763,2,,,,,,,,,,Chatham Village Cafe,,,,,,,cafe,,,,,,,,,,,,,,,,,,,,,,,,,,,,,,,,,,,,,,,,,,,,,,,,,,,,,,,,,,,,,,,,,,,,,POINT (-69.953804 41.67897),node,,,,,,,,,,2782.0,02633
0.0,-69.955826,False,41.679203,1688749161,,764420789,3,,,,,,,,,,Chatham Perk,,,+1-508-945-5662,,,,cafe,,,,,,,,,,,,,,,,,,,,,,,,,,,,,,,,,,,,,,,,,,,,,,,,,,,,,,,,,,,,,,,,,,,,,POINT (-69.955826 41.679203),node,,,,,,,,,,2782.0,02633
0.0,-69.957855,False,41.680542,1686417505,"{""cuisine"":""sandwich"",""outdoor_seating"":""yes""}",764420791,3,,,,,,,,,,Chatham Cookware,,,,,,https://www.chathamcookware.com/,restaurant,,,,,,,,,,,,,,,,,,,,,,,,,,,,,,,,,,,,,,,,,,,,,,,,,,,,,,,,,,,,,,,,,,,,,POINT (-69.957855 41.680542),node,,,,,,,,,,2782.0,02633
0.0,-69.95645,False,41.67989,1684641889,"{""addr:state"":""MA""}",764420874,3,Chatham,,,15,,,,Chatham Bars Avenue,,Impudent Oyster,,,,,,https://www.theimpudentoyster.com/,restaurant,,,,,,,,,,,,,,,,,,,,,,,,,,,,,,,,,,,,,,,,,,,,,,,,,,,,,,,,,,,,,,,,,,,,,POINT (-69.95645 41.67989),node,,,,,,,,,,2782.0,02633
0.0,-69.96087,False,41.68477,1688408557,,764420882,3,,,,,,,,,,Chatham Filling Station,,,,,,https://www.chathamfillingstation.com/,cafe,,,,,,,,,,,,,,,,,,,,,,,,,,,,,,,,,,,,,,,,,,,,,,,,,,,,,,,,,,,,,,,,,,,,,POINT (-69.96087 41.68477),node,,,,,,,,,,2782.0,02633
0.0,-69.958855,False,41.681564,1722113807,"{""cuisine"":""seafood"",""outdoor_seating"":""yes""}",764420885,5,,,,,,,,,,Captain's Table,"Su-Th 08:30-15:00; Fr,Sa 08:30-20:00",,,,,https://captainstablechatham.com/,restaurant,,,,,,,,,,,,,,,,,,,,,,,,,,,,,,,,,,,,,,,,,,,,,,,,,,,,,,,,,,,,,,,,,,,,,POINT (-69.958855 41.681564),node,,,,,,,,,,2782.0,02633
0.0,-69.95729,False,41.68026,1688935702,"{""outdoor_seating"":""yes""}",764420905,2,,,,,,,,,,Wild Goose Tavern,,,,,,,restaurant,,,,,,,,,,,,,,,,,,,,,,,,,,,,,,,,,,,,,,,,,,,,,,,,,,,,,,,,,,,,,,,,,,,,,POINT (-69.95729 41.68026),node,,,,,,,,,,2782.0,02633
0.0,-70.189804,False,42.050236,1527722339,"{""addr:state"":""MA""}",764434433,3,Provincetown,,,82,,02657,,Bradford Street,,The Pointe Restaurant + Wine bar,,,,,,https://provincetown-restaurant.com/,restaurant,,,,,,,,,,,,,,,,,,,,,,,,,,,,,,,,,,,,,,,,,,,,,,,,,,,,,,,,,,,,,,,,,,,,,POINT (-70.189804 42.050236),node,,,,,,,,,,2973.0,02657
0.0,-70.18534,False,42.051704,1500339054,,764434466,2,,,,,,,,,,The Coffee Pot and Bakery,,,,,,,cafe,,,,,,,,,,,,,,,,,,,,,,,,,,,,,,,,,,,,,,,,,,,,,,,,,,,,,,,,,,,,,,,,,,,,,POINT (-70.18534 42.051704),node,,,,,,,,,,2973.0,02657
0.0,-70.18496,False,42.052643,1652831503,"{""addr:state"":""MA"",""outdoor_seating"":""yes""}",764434476,4,Provincetown,,,334,,02657,,Commercial Street,,Blue Monkey Cafe,"Mo-Th off; Fr 10:00-15:00; Sa,Su 09:00-16:00",,,,,https://thebluemonkeycafe.com/,cafe,,,,,,,,,,,,,,,,,,,,,,,,,,,,,,,,,,,,,,,,,,,,,,,,,,,,,,,,,,,,,,,,,,,,,POINT (-70.18496 42.052643),node,,,,,,,,,,2973.0,02657
0.0,-70.18629,False,42.051483,1588628525,"{""addr:state"":""MA"",""cuisine"":""pizza""}",764434495,4,Provincetown,,,293,,02657,,Commercial Street,,Twisted Pizza and Ice Cream,,,,,,,cafe,,,,,,,,,,,,,,,,,,,,,,,,,,,,,,,,,,,,,,,,,,,,,,,,,,,,,,,,,,,,,,,,,,,,,POINT (-70.18629 42.051483),node,,,,,,,,,,2973.0,02657
0.0,-70.66385,False,42.61262,1693839383,"{""cuisine"":""american""}",764720823,2,,,,110,,,,Main Street,,Passports,Tu-Su 10:00-21:00; PH off,,(978) 281-3680,,,https://passportsrestaurant.com/,restaurant,,,,,,,,,,,,,,,,,,,,,,,,,,,,,,,,,,,,,,,,,,,,,,,,,,,,,,,,,,,,,,,,,,,,,POINT (-70.66385 42.61262),node,,,,,,,,,,2584.0,01930
0.0,-71.23596,False,42.501564,1704144154,"{""alt_name"":""Melting Pot"",""brand"":""The Melting Pot"",""brand:wikidata"":""Q7750948"",""cuisine"":""fondue""}",773165938,2,,,,,,,,,,The Melting Pot,,,,,,,restaurant,,,,,,,,,,,,,,,,,,,,,,,,,,,,,,,,,,,,,,,,,,,,,,,,,,,,,,,,,,,,,,,,,,,,,POINT (-71.23596 42.501564),node,,,,,,,,,,12549.0,01730
0.0,-71.23005,False,42.500893,1715212301,"{""addr:state"":""MA"",""alt_name"":""Dunkin' Donuts"",""brand"":""Dunkin'"",""brand:wikidata"":""Q847743"",""contact:website"":""https://locations.dunkindonuts.com/en/ma/burlington/240-middlesex-tpke/308382"",""cuisine"":""donut;coffee_shop"",""drive_through"":""no"",""takeaway"":""yes""}",773168766,7,Burlington,,,240,,01803,,Middlesex Turnpike Extension,,Dunkin',Mo-Fr 05:30-19:00; Sa 05:30-18:00; Su 06:00-18:00,,+1-781-270-3293,308382,,https://locations.dunkindonuts.com/en/ma/burlington/240-middlesex-tpke/308382,fast_food,,,,,,,,,,,,,,,,,,,,,,,,,,,,,,,,,,,,,,,,,,,,,,,,,,,,,,,,,,,,,,,,,,,,,POINT (-71.23005 42.500893),node,,,,,,,,,,12133.0,01803
0.0,-71.23198,False,42.50144,1276627101,,773171259,1,,,,,,,,,,Famous Pizza,,,,,,,fast_food,,,,,,,,,,,,,,,,,,,,,,,,,,,,,,,,,,,,,,,,,,,,,,,,,,,,,,,,,,,,,,,,,,,,,POINT (-71.23198 42.50144),node,,,,,,,,,,12133.0,01803
0.0,-71.22585,False,42.495556,1276627317,,773177797,1,,,,,,,,,,Lemon Tree,,,,,,,restaurant,,,,,,,,,,,,,,,,,,,,,,,,,,,,,,,,,,,,,,,,,,,,,,,,,,,,,,,,,,,,,,,,,,,,,POINT (-71.22585 42.495556),node,,,,,,,,,,12133.0,01803
0.0,-71.07254,False,42.350643,1666211407,"{""wheelchair"":""yes""}",775407453,3,,,,205,,02116,,Berkeley Street,,FiRE + iCE,,,+1 (617) 482-3473,,,http://www.fire-ice.com/locations/boston-ma,restaurant,,,,,,,,,,,,,,,,,,,,,,,,,,,,,,,,,,,,,,,,,,,,,,,,,,,,,,,,,,,,,,,,,,,,,POINT (-71.07254 42.350643),node,,,,,,,,,,12622.0,02116
0.0,-71.06117,False,42.37138,1741030853,"{""addr:state"":""MA"",""contact:instagram"":""https://www.instagram.com/emmibakerycafe/"",""cuisine"":""coffee_shop""}",775407568,2,Charlestown,,,100,,02129,,City Square,,Emmi Bakery and Cafe,,,(617) 337-5045,,,https://emmibakerycafe.com/,cafe,,,,,,,,,,,,,,,,,,,,,,,,,,,,,,,,,,,,,,,,,,,,,,,,,,,,,,,,,,,,,,,,,,,,,POINT (-71.06117 42.37138),node,,,,,,,,,,12733.0,02129
0.0,-71.06154,False,42.37123,1276825487,,775408227,1,,,,,,,,,,Max & Dylan's,,,,,,,restaurant,,,,,,,,,,,,,,,,,,,,,,,,,,,,,,,,,,,,,,,,,,,,,,,,,,,,,,,,,,,,,,,,,,,,,POINT (-71.06154 42.37123),node,,,,,,,,,,12733.0,02129
0.0,-71.02224,False,42.242966,1277658442,,793105119,1,,,,,,,,,,Copeland Pizza,,,,,,,fast_food,,,,,,,,,,,,,,,,,,,,,,,,,,,,,,,,,,,,,,,,,,,,,,,,,,,,,,,,,,,,,,,,,,,,,POINT (-71.02224 42.242966),node,,,,,,,,,,12704.0,02169
0.0,-71.77827,False,42.19949,1717582709,"{""addr:state"":""MA"",""addr:unit"":""425"",""branch"":""Blackstone Valley Crossing"",""brand"":""Qdoba"",""brand:wikidata"":""Q1363885"",""cuisine"":""mexican"",""official_name"":""Qdoba Mexican Grill"",""takeaway"":""yes""}",811416072,6,Millbury,,,70,,01527,,Worcester Providence Tpk,,Qdoba,Mo-We 10:30-22:00; Th-Sa 10:30-23:00; Su 10:30-22:00,,+1 508-865-0500,,,https://locations.qdoba.com/us/ma/millbury/70-worcester-providence-tpk.html,fast_food,,,,,,,,,,,,,,,,,,,,,,,,,,,,,,,,,,,,,,,,,,,,,,,,,,,,,,,,,,,,,,,,,,,,,POINT (-71.77827 42.19949),node,,,,,,,,,,12214.0,01527
0.0,-71.7776,False,42.199368,1739760531,"{""addr:state"":""MA"",""brand"":""Uno Pizzeria & Grill"",""brand:wikidata"":""Q7897209"",""cuisine"":""pizza"",""disused:amenity"":""restaurant"",""short_name"":""Uno's""}",811416075,4,Millbury,,,70,,01527,,Worcester-Providence Turnpike,,Uno Pizzeria & Grill,,,,,,,restaurant,,,,,,,,,,,,,,,,,,,,,,,,,,,,,,,,,,,,,,,,,,,,,,,,,,,,,,,,,,,,,,,,,,,,,POINT (-71.7776 42.199368),node,,,,,,,,,,12214.0,01527
0.0,-71.11872,False,42.351784,1705375052,"{""brand"":""Raising Cane's"",""brand:wikidata"":""Q7285144"",""cuisine"":""chicken"",""drive_through"":""no"",""official_name"":""Raising Cane's Chicken Fingers"",""takeaway"":""yes""}",815754376,8,,,,949,,,,Commonwealth Avenue,,Raising Cane's,,,,,,https://raisingcanes.com/,fast_food,,,,,,,,,,,,,,,,,,,,,,,,,,,,,,,,,,,,,,,,,,,,,,,,,,,,,,,,,,,,,,,,,,,,,POINT (-71.11872 42.351784),node,,,,,,,,,,2778.0,02215
0.0,-71.13062,False,42.350098,1727662475,"{""addr:state"":""MA"",""brand"":""Taco Bell"",""brand:wikidata"":""Q752941"",""cuisine"":""tex-mex"",""delivery"":""yes"",""drive_through"":""no"",""takeaway"":""yes""}",815763078,6,Allston,US,,1222,,02134,,Commonwealth Avenue,,Taco Bell,"Su-Th 07:00-27:00, Fr-Sa 07:00-27:30",,(857) 341-0980,,,https://locations.tacobell.com/ma/allston/1222-commonwealth-ave.html,fast_food,,,,,,,,,,,,,,,,,,,,,,,,,,,,,,,,,,,,,,,,,,,,,,,,,,,,,,,,,,,,,,,,,,,,,POINT (-71.13062 42.350098),node,,,,,,,,,,12737.0,02134
0.0,-71.77817,False,42.270275,1740157084,,816234402,6,Worcester,US,,346,,01604,,Shrewsbury Street,,Vintage Grill and Bar,,,+1 508 752 0558,,,https://www.vintagegrilleandbar.com/,restaurant,,,,,,,,,,,,,,,,,,,,,,,,,,,,,,,,,,,,,,,,,,,,,,,,,,,,,,,,,,,,,,,,,,,,,POINT (-71.77817 42.270275),node,,,,,,,,,,12396.0,01604
0.0,-71.770966,False,42.272648,1715255911,"{""addr:state"":""MA"",""brand"":""McDonald's"",""brand:wikidata"":""Q38076"",""cuisine"":""burger"",""drive_through"":""yes"",""takeaway"":""yes""}",816234403,7,Worcester,,,465,,01604,,Shrewsbury Street,,McDonald's,24/7,,+1 508-757-9996,,,https://www.mcdonalds.com/us/en-us/location/22710.html,fast_food,,,,,,,,,,,,,,,,wlan,,,,,,,,,,,,,,,,,,,,,,,,,,,,,,,,,,,,,,,,,,,,,,,,,,,,,POINT (-71.770966 42.272648),node,,,,,,,,,,12396.0,01604
0.0,-70.99354,False,42.382263,1738527203,"{""addr:state"":""MA"",""check_date"":""2025-02-02"",""contact:facebook"":""https://www.facebook.com/Belle-Isle-Seafood-405098856171151/"",""contact:phone"":""+1-617-567-1619"",""contact:website"":""https://www.belleisleseafood.net/"",""cuisine"":""seafood"",""diet:seafood"":""yes"",""opening_hours:url"":""https://www.belleisleseafood.net/location-hours/"",""outdoor_seating"":""yes"",""payment:cash"":""yes"",""payment:coins"":""yes"",""payment:credit_cards"":""no"",""payment:cryptocurrencies"":""no"",""payment:debit_cards"":""no"",""payment:electronic_purses"":""no"",""payment:notes"":""yes"",""website:menu"":""https://www.belleisleseafood.net/menu/#/main-menu""}",847518258,6,Winthrop,US,,1,,02152,,Main Street,,Belle Isle Seafood,Mo-Sa 11:00-20:00; Su 11:00-19:00,,,,,,restaurant,,,,,,,,,,,,,,,,,,,,,,,,,,,,,,,,,,,,,,,,,,,,,,,,,,,,,,,,,,,,,,,,,,,,,POINT (-70.99354 42.382263),node,,,,,,,,,,2302.0,02152
0.0,-71.79419,False,42.258755,1281319722,,850373169,1,,,,,,,,,,Bocato,,,,,,,restaurant,,,,,,,,,,,,,,,,,,,,,,,,,,,,,,,,,,,,,,,,,,,,,,,,,,,,,,,,,,,,,,,,,,,,,POINT (-71.79419 42.258755),node,,,,,,,,,,12396.0,01604
0.0,-71.137794,False,42.361362,1705375052,"{""brand"":""Bruegger's Bagels"",""brand:wikidata"":""Q4978656"",""cuisine"":""bagel"",""short_name"":""Bruegger's"",""takeaway"":""yes""}",854077416,5,,,,,,,,,,Bruegger's Bagels,,,,,,https://www.brueggers.com/,fast_food,,,,,,,,,,,,,,,,,,,,,,,,,,,,,,,,,,,,,,,,,,,,,,,,,,,,,,,,,,,,,,,,,,,,,POINT (-71.137794 42.361362),node,,,,,,,,,,2401.0,02135
0.0,-70.18207,False,42.054546,1698493364,"{""cuisine"":""breakfast""}",855546122,5,,,,401,,,,Commercial Street,,Yolqueria,,,,,,https://www.yolqueria.com/,restaurant,,,,,,,,,,,,,,,,,,,,,,,,,,,,,,,,,,,,,,,,,,,,,,,,,,,,,,,,,,,,,,,,,,,,,POINT (-70.18207 42.054546),node,,,,,,,,,,2973.0,02657
0.0,-70.19508,False,42.043713,1527377012,"{""cuisine"":""seafood""}",855550083,2,,,,175,,,,Bradford Street,,Victor's,,,,,,,restaurant,,,,,,,,,,,,,,,,,,,,,,,,,,,,,,,,,,,,,,,,,,,,,,,,,,,,,,,,,,,,,,,,,,,,,POINT (-70.19508 42.043713),node,,,,,,,,,,2973.0,02657
0.0,-71.05481,False,42.363655,1699270123,"{""cuisine"":""italian;panini;sandwich;pizza;calzone;zuppe""}",870648662,6,,,,264-266,,,,Hanover Street,,Quattro,,,+1 617 720 5740,,,https://www.depasqualeventures.com/,restaurant,,,,,,,,,,,,,,,,,,,,,,,,,,,,,,,,,,,,,,,,,,,,,,,,,,,,,,,,,,,,,,,,,,,,,POINT (-71.05481 42.363655),node,,,,,,,,,,12606.0,02113
0.0,-71.776,False,42.571724,1716119876,"{""addr:state"":""MA"",""brand"":""Subway"",""brand:wikidata"":""Q244457"",""cuisine"":""sandwich"",""takeaway"":""yes""}",871125478,5,Fitchburg,,,2,,01420,,Ray Avenue,,Subway,Mo-Fr 07:30-22:00; Sa 09:30-22:00; Su 09:30-20:00,,+1 978-345-0138,,,https://restaurants.subway.com/united-states/ma/fitchburg/2-ray-avenue,fast_food,,,,,,,,,,,,,,,,,,,,,,,,,,,,,,,,,,,,,,,,,,,,,,,,,,,,,,,,,,,,,,,,,,,,,POINT (-71.776 42.571724),node,,,,,,,,,,12286.0,01420
0.0,-71.77267,False,42.295757,1715255911,"{""addr:state"":""MA"",""brand"":""McDonald's"",""brand:wikidata"":""Q38076"",""cuisine"":""burger"",""drive_through"":""yes"",""takeaway"":""yes""}",876264821,6,Worcester,,,548,,01608,,Lincoln Street,,McDonald's,05:00-23:00,,+1 508-852-5417,,,https://www.mcdonalds.com/us/en-us/location/6154.html,fast_food,,,,,,,,,,,,,,,,wlan,,,,,,,,,,,,,,,,,,,,,,,,,,,,,,,,,,,,,,,,,,,,,,,,,,,,,POINT (-71.77267 42.295757),node,,,,,,,,,,12046.0,01605
0.0,-71.77855,False,42.292538,1715376073,"{""addr:state"":""MA"",""brand"":""Taco Bell"",""brand:wikidata"":""Q752941"",""cuisine"":""tex-mex"",""takeaway"":""yes""}",876264835,6,Worcester,,,463,,01605,,Lincoln Street,,Taco Bell,10:00-22:00,,+1 774-415-0560,,,https://locations.tacobell.com/ma/worcester/463-lincoln-street.html,fast_food,,,,,,,,,,,,,,,,,,,,,,,,,,,,,,,,,,,,,,,,,,,,,,,,,,,,,,,,,,,,,,,,,,,,,POINT (-71.77855 42.292538),node,,,,,,,,,,12046.0,01605
